{"source": "https://combanketh.et/api/atm-locations?populate=*", "fetched": "2026-06-05", "pagination": {"total": 2884, "pageSize": 200, "pageCount": 15}, "data": [{"id": 4894, "documentId": "b44999da-9d82-40fd-9406-e4b6ac1dbb57", "lat": 8.16, "lon": 38.83, "terminalId": "AAD00183", "city": null, "telephone": null, "createdAt": null, "updatedAt": null, "publishedAt": "2025-11-01T09:12:40.049Z", "atmName": "Meki", "branch": "ADAMA", "district": "MEKI BRANCH ATM3", "locationType": "1", "locationTypeDesc": "Financial Institution"}, {"id": 4895, "documentId": "8bfedce2-da0b-41ad-b6fe-3ef0cf44ea40", "lat": 10.7, "lon": 39.78, "terminalId": "ADB00058", "city": null, "telephone": null, "createdAt": null, "updatedAt": null, "publishedAt": "2025-11-01T09:12:40.057Z", "atmName": "Mekoy", "branch": "DEBRE BERHAN", "district": "MEKOY BRANCH ATM 1", "locationType": "1", "locationTypeDesc": "Financial Institution"}, {"id": 2894, "documentId": "5bff86ee-267f-45f1-a3e8-e2377942eefc", "lat": 9.07, "lon": 38.77, "terminalId": "AYK00072", "city": null, "telephone": null, "createdAt": null, "updatedAt": null, "publishedAt": "2025-11-01T09:05:40.684Z", "atmName": "41 Eyesus", "branch": "YEKA", "district": "41 EYESUS BRANCH ATM 1", "locationType": "1", "locationTypeDesc": "Financial Institution"}, {"id": 2895, "documentId": "006fd097-3e16-4ca9-92e1-6d1a3535c471", "lat": 9.05, "lon": 38.75, "terminalId": "AAR00090", "city": null, "telephone": null, "createdAt": null, "updatedAt": null, "publishedAt": "2025-11-01T09:05:40.688Z", "atmName": "8 KUTIR MAZORIA", "branch": "ARADA", "district": "8 KUTIR MAZORIA BRANCH ATM 2", "locationType": "1", "locationTypeDesc": "Financial Institution"}, {"id": 2896, "documentId": "2d49f851-f7be-4312-9d6b-93279247246b", "lat": 9.05, "lon": 38.75, "terminalId": "AAR00089", "city": null, "telephone": null, "createdAt": null, "updatedAt": null, "publishedAt": "2025-11-01T09:05:40.693Z", "atmName": "8 KUTIR MAZORIA", "branch": "ARADA", "district": "8 KUTIR MAZORIA BRANCH ATM 1", "locationType": "1", "locationTypeDesc": "Financial Institution"}, {"id": 2897, "documentId": "f8f79636-08ae-4941-9edf-2ff2c4bc6241", "lat": 7.86, "lon": 36.58, "terminalId": "AJM00127", "city": null, "telephone": null, "createdAt": null, "updatedAt": null, "publishedAt": "2025-11-01T09:05:40.696Z", "atmName": "ABA BOKA", "branch": "JIMMA", "district": "ABABOKA BRANCH ATM 1", "locationType": "1", "locationTypeDesc": "Financial Institution"}, {"id": 2898, "documentId": "88844faf-8e44-44df-81fc-cae9be5cc5a9", "lat": 7.65, "lon": 36.84, "terminalId": "AJM00179", "city": null, "telephone": null, "createdAt": null, "updatedAt": null, "publishedAt": "2025-11-01T09:05:40.699Z", "atmName": "ABA BUNA", "branch": "JIMMA", "district": "ABA BUNA BRANCH ATM", "locationType": "1", "locationTypeDesc": "Financial Institution"}, {"id": 2899, "documentId": "5dfcf0ee-2b56-4111-b856-b4c78ba93d3b", "lat": 9.31, "lon": 42.13, "terminalId": "AJJ00001", "city": null, "telephone": null, "createdAt": null, "updatedAt": null, "publishedAt": "2025-11-01T09:05:40.701Z", "atmName": "Abadir", "branch": "JIJIGA", "district": "ABADIR BRANCH ATM 1", "locationType": "1", "locationTypeDesc": "Financial Institution"}, {"id": 2900, "documentId": "e56c456b-3c8d-4773-9f16-81296cc20176", "lat": 9.06, "lon": 38.87, "terminalId": "AYK00060", "city": null, "telephone": null, "createdAt": null, "updatedAt": null, "publishedAt": "2025-11-01T09:05:40.704Z", "atmName": "ABADO CONDOMINIUM", "branch": "YEKA", "district": "ABADOCONDOMINIUMATM2", "locationType": "1", "locationTypeDesc": "Financial Institution"}, {"id": 2901, "documentId": "3e34a162-f532-41b1-b2ff-d99bf8e88034", "lat": 9.06, "lon": 38.87, "terminalId": "AYK00123", "city": null, "telephone": null, "createdAt": null, "updatedAt": null, "publishedAt": "2025-11-01T09:05:40.707Z", "atmName": "ABADO CONDOMINIUM", "branch": "YEKA", "district": "Abado Condominium Branch ATM 3", "locationType": "1", "locationTypeDesc": "Financial Institution"}, {"id": 2902, "documentId": "ea8430c9-5b42-4d99-9462-7ea7b2a778f2", "lat": 9.06, "lon": 38.87, "terminalId": "AYK00059", "city": null, "telephone": null, "createdAt": null, "updatedAt": null, "publishedAt": "2025-11-01T09:05:40.711Z", "atmName": "ABADO CONDOMINIUM", "branch": "YEKA", "district": "ABADOCONDOMINIUMATM1", "locationType": "1", "locationTypeDesc": "Financial Institution"}, {"id": 2903, "documentId": "8a84305f-9d0a-497e-93ed-9e3d2add8672", "lat": 11.59, "lon": 37.39, "terminalId": "ABD00146", "city": null, "telephone": null, "createdAt": null, "updatedAt": null, "publishedAt": "2025-11-01T09:05:40.714Z", "atmName": "ABA FASILO", "branch": "BAHIR DAR", "district": "ABAFASILO BRANCH ATM 1", "locationType": "1", "locationTypeDesc": "Financial Institution"}, {"id": 2904, "documentId": "5b465a56-d0f9-4a9c-9fb7-c0dbe628bb38", "lat": 11.59, "lon": 37.39, "terminalId": "ABD00189", "city": null, "telephone": null, "createdAt": null, "updatedAt": null, "publishedAt": "2025-11-01T09:05:40.717Z", "atmName": "ABA FASILO", "branch": "BAHIR DAR", "district": "ABA FASILO BRANCH ATM2", "locationType": "1", "locationTypeDesc": "Financial Institution"}, {"id": 2905, "documentId": "bb83ad6a-3f39-483e-a6b7-f7bdf945791c", "lat": 9.02, "lon": 38.68, "terminalId": "AKF00007", "city": null, "telephone": null, "createdAt": null, "updatedAt": null, "publishedAt": "2025-11-01T09:05:40.719Z", "atmName": "Aba Gare", "branch": "KOLFE", "district": "ABA GARE BRANCH ATM", "locationType": "1", "locationTypeDesc": "Financial Institution"}, {"id": 2906, "documentId": "3af6d401-a2fc-41a5-84d7-01d8972a10ee", "lat": 8.54, "lon": 39.27, "terminalId": "AAD00042", "city": null, "telephone": null, "createdAt": null, "updatedAt": null, "publishedAt": "2025-11-01T09:05:40.722Z", "atmName": "Abageda", "branch": "ADAMA", "district": "ABAGEDA BRANCH ATM 2", "locationType": "1", "locationTypeDesc": "Financial Institution"}, {"id": 2907, "documentId": "50694ecb-7ef4-4de4-a2c8-474e6a21f3ea", "lat": 8.53, "lon": 39.24, "terminalId": "AAD00155", "city": null, "telephone": null, "createdAt": null, "updatedAt": null, "publishedAt": "2025-11-01T09:05:40.724Z", "atmName": "Abageda", "branch": "ADAMA", "district": "GALMA ABAGEDA CITY HALL ATM", "locationType": "24", "locationTypeDesc": "Shopping Mall"}, {"id": 2908, "documentId": "b9ab68eb-0a41-49cc-9870-aeb41278721d", "lat": 8.54, "lon": 39.27, "terminalId": "AAD00116", "city": null, "telephone": null, "createdAt": null, "updatedAt": null, "publishedAt": "2025-11-01T09:05:40.727Z", "atmName": "Abageda", "branch": "ADAMA", "district": "ABAGEDA BRANCH ATM 5", "locationType": "1", "locationTypeDesc": "Financial Institution"}, {"id": 2909, "documentId": "a50ddbac-12a1-469e-b1f5-0a7f765b83c2", "lat": 8.54, "lon": 39.27, "terminalId": "AAD00105", "city": null, "telephone": null, "createdAt": null, "updatedAt": null, "publishedAt": "2025-11-01T09:05:40.729Z", "atmName": "Abageda", "branch": "ADAMA", "district": "ABAGEDA BRANCH ATM 4", "locationType": "1", "locationTypeDesc": "Financial Institution"}, {"id": 2910, "documentId": "eb242923-d842-48bd-ae0f-709404a77a82", "lat": 8.54, "lon": 39.27, "terminalId": "AAD00079", "city": null, "telephone": null, "createdAt": null, "updatedAt": null, "publishedAt": "2025-11-01T09:05:40.733Z", "atmName": "Abageda", "branch": "ADAMA", "district": "ABAGEDA BRANCH ATM 3", "locationType": "1", "locationTypeDesc": "Financial Institution"}, {"id": 2911, "documentId": "614701ce-d80a-4876-b356-e6ae0f9d2ed7", "lat": 11.67, "lon": 39.66, "terminalId": "AWL00073", "city": null, "telephone": null, "createdAt": null, "updatedAt": null, "publishedAt": "2025-11-01T09:05:40.735Z", "atmName": "ABAGETYE", "branch": "WOLDIA", "district": "ABA GETYE BRANCH", "locationType": "1", "locationTypeDesc": "Financial Institution"}, {"id": 2912, "documentId": "13947353-7d51-4e40-a03a-2e8774a88075", "lat": 12.63, "lon": 37.47, "terminalId": "AGD00010", "city": null, "telephone": null, "createdAt": null, "updatedAt": null, "publishedAt": "2025-11-01T09:05:40.738Z", "atmName": "Abajale", "branch": "GONDAR", "district": "ABAJALE BRANCH ATM", "locationType": "1", "locationTypeDesc": "Financial Institution"}, {"id": 2913, "documentId": "6139f20f-05e0-4110-a652-867ccc582678", "lat": 8.38, "lon": 39.68, "terminalId": "AAS00044", "city": null, "telephone": null, "createdAt": null, "updatedAt": null, "publishedAt": "2025-11-01T09:05:40.740Z", "atmName": "Abajema", "branch": "ASSELA", "district": "ABAJEMA BRANCH ATM 1", "locationType": "1", "locationTypeDesc": "Financial Institution"}, {"id": 2914, "documentId": "813ed3ad-48c5-4532-8dfe-1145b334d8da", "lat": 7.67, "lon": 36.84, "terminalId": "AJM00026", "city": null, "telephone": null, "createdAt": null, "updatedAt": null, "publishedAt": "2025-11-01T09:05:40.742Z", "atmName": "Abajifar", "branch": "JIMMA", "district": "JIMMA ATM CENTER ATM 1", "locationType": "18", "locationTypeDesc": "On Street"}, {"id": 2915, "documentId": "0481880e-4bc7-4b39-aa75-f1443067c66d", "lat": 7.67, "lon": 36.84, "terminalId": "AJM00047", "city": null, "telephone": null, "createdAt": null, "updatedAt": null, "publishedAt": "2025-11-01T09:05:40.745Z", "atmName": "Abajifar", "branch": "JIMMA", "district": "ABAJIFAR BRANCH ATM 1", "locationType": "1", "locationTypeDesc": "Financial Institution"}, {"id": 2916, "documentId": "1af50afc-4e1b-45b1-b0b6-cbcf60f44bf0", "lat": 7.67, "lon": 36.84, "terminalId": "AJM00028", "city": null, "telephone": null, "createdAt": null, "updatedAt": null, "publishedAt": "2025-11-01T09:05:40.747Z", "atmName": "Abajifar", "branch": "JIMMA", "district": "JIMMA ATM CENTER ATM 3", "locationType": "18", "locationTypeDesc": "On Street"}, {"id": 2917, "documentId": "d1f70758-b7b7-459f-9baa-c5808ef317ce", "lat": 7.67, "lon": 36.84, "terminalId": "AJM00027", "city": null, "telephone": null, "createdAt": null, "updatedAt": null, "publishedAt": "2025-11-01T09:05:40.750Z", "atmName": "Abajifar", "branch": "JIMMA", "district": "JIMMA ATM CENTER ATM 2", "locationType": "18", "locationTypeDesc": "On Street"}, {"id": 2918, "documentId": "cf80e944-7ab3-4746-8df2-bb2fd0a72fb1", "lat": 9.03, "lon": 38.74, "terminalId": "AMR00003", "city": null, "telephone": null, "createdAt": null, "updatedAt": null, "publishedAt": "2025-11-01T09:05:40.753Z", "atmName": "Abakoran", "branch": "MERKATO", "district": "ABAKORAN BRANCH ATM 3", "locationType": "1", "locationTypeDesc": "Financial Institution"}, {"id": 2919, "documentId": "c675924d-b6e0-47ad-b380-9690420a4692", "lat": 9.03, "lon": 38.74, "terminalId": "AMR00001", "city": null, "telephone": null, "createdAt": null, "updatedAt": null, "publishedAt": "2025-11-01T09:05:40.756Z", "atmName": "Abakoran", "branch": "MERKATO", "district": "ABAKORAN BRANCH ATM 1", "locationType": "1", "locationTypeDesc": "Financial Institution"}, {"id": 2920, "documentId": "56a90c81-71bb-4f25-ba98-6bc9404f7223", "lat": 9.03, "lon": 38.74, "terminalId": "AMR00002", "city": null, "telephone": null, "createdAt": null, "updatedAt": null, "publishedAt": "2025-11-01T09:05:40.758Z", "atmName": "Abakoran", "branch": "MERKATO", "district": "ABAKORAN BRANCH ATM 02", "locationType": "1", "locationTypeDesc": "Financial Institution"}, {"id": 2921, "documentId": "3b1cea49-ba26-415c-ab64-e855c5f2cf6f", "lat": 7.2, "lon": 38.61, "terminalId": "ASH00087", "city": null, "telephone": null, "createdAt": null, "updatedAt": null, "publishedAt": "2025-11-01T09:05:40.761Z", "atmName": "Abaro", "branch": "SHASHEMENE", "district": "ABARO BRANCH ATM 3", "locationType": "1", "locationTypeDesc": "Financial Institution"}, {"id": 2922, "documentId": "af7a196e-74c2-4eb7-951e-5b9bd12209d8", "lat": 7.2, "lon": 38.61, "terminalId": "ASH00159", "city": null, "telephone": null, "createdAt": null, "updatedAt": null, "publishedAt": "2025-11-01T09:05:40.763Z", "atmName": "Abaro", "branch": "SHASHEMENE", "district": "ABARO BRANCH ATM 5", "locationType": "1", "locationTypeDesc": "Financial Institution"}, {"id": 2923, "documentId": "d1fc3187-2b84-4a79-8774-6409bb336d11", "lat": 7.2, "lon": 38.61, "terminalId": "ASH00105", "city": null, "telephone": null, "createdAt": null, "updatedAt": null, "publishedAt": "2025-11-01T09:05:40.765Z", "atmName": "Abaro", "branch": "SHASHEMENE", "district": "ABARO BRANCH ATM 4", "locationType": "1", "locationTypeDesc": "Financial Institution"}, {"id": 2924, "documentId": "18083f95-b28c-4b1f-98ed-947ff19ef1a6", "lat": 7.2, "lon": 38.61, "terminalId": "ASH00046", "city": null, "telephone": null, "createdAt": null, "updatedAt": null, "publishedAt": "2025-11-01T09:05:40.768Z", "atmName": "Abaro", "branch": "SHASHEMENE", "district": "ABARO BRANCH ATM 2", "locationType": "1", "locationTypeDesc": "Financial Institution"}, {"id": 2925, "documentId": "b221442f-99df-48bf-bd6c-4d4d4d43cf41", "lat": 7.07, "lon": 38.5, "terminalId": "AGD00085", "city": null, "telephone": null, "createdAt": null, "updatedAt": null, "publishedAt": "2025-11-01T09:05:40.770Z", "atmName": "Abasamuel", "branch": "GONDAR", "district": "ABA SAMUEL BRANCH ATM", "locationType": "1", "locationTypeDesc": "Financial Institution"}, {"id": 2926, "documentId": "bfb4070c-3b14-4ad0-a49b-13f660658b9d", "lat": 9.17, "lon": 35.83, "terminalId": "ANK00085", "city": null, "telephone": null, "createdAt": null, "updatedAt": null, "publishedAt": "2025-11-01T09:05:40.773Z", "atmName": "Abasena", "branch": "NEKEMTE", "district": "ABASENA BRANCH ATM 1", "locationType": "1", "locationTypeDesc": "Financial Institution"}, {"id": 2927, "documentId": "359d621c-844f-4563-9d03-a6497a273534", "lat": 9.17, "lon": 35.83, "terminalId": "ANK00120", "city": null, "telephone": null, "createdAt": null, "updatedAt": null, "publishedAt": "2025-11-01T09:05:40.776Z", "atmName": "Abasena", "branch": "NEKEMTE", "district": "ABASENA BRANCH ATM 2", "locationType": "1", "locationTypeDesc": "Financial Institution"}, {"id": 2928, "documentId": "c69500d4-e4e0-41ce-9617-606ecb29708f", "lat": 6.49, "lon": 38.53, "terminalId": "AGD00128", "city": null, "telephone": null, "createdAt": null, "updatedAt": null, "publishedAt": "2025-11-01T09:05:40.778Z", "atmName": "ABA TATEK", "branch": "GONDAR", "district": "ABA TATEK BRANCH ATM", "locationType": "1", "locationTypeDesc": "Financial Institution"}, {"id": 2929, "documentId": "cdac75be-bb4d-40fa-ad72-71f83de10d78", "lat": 11.15, "lon": 36.34, "terminalId": "ABD00156", "city": null, "telephone": null, "createdAt": null, "updatedAt": null, "publishedAt": "2025-11-01T09:05:40.781Z", "atmName": "Abat Beles", "branch": "BAHIR DAR", "district": "ABAT BELES BRANCH ATM 2", "locationType": "1", "locationTypeDesc": "Financial Institution"}, {"id": 2930, "documentId": "bc5ed2a1-39b3-4867-8ce8-41b51aa3bf6a", "lat": 11.15, "lon": 36.34, "terminalId": "ABD00015", "city": null, "telephone": null, "createdAt": null, "updatedAt": null, "publishedAt": "2025-11-01T09:05:40.783Z", "atmName": "Abat Beles", "branch": "BAHIR DAR", "district": "ABAT BELES BRANCH ATM 1", "locationType": "1", "locationTypeDesc": "Financial Institution"}, {"id": 2931, "documentId": "5f33ef4d-2652-40eb-8e8f-5e231431efe8", "lat": 6.04, "lon": 37.55, "terminalId": "AWT00210", "city": null, "telephone": null, "createdAt": null, "updatedAt": null, "publishedAt": "2025-11-01T09:05:40.786Z", "atmName": "ABAYA", "branch": "WOLAITA SODO", "district": "ABAYA BRANCH ATM 2", "locationType": "1", "locationTypeDesc": "Financial Institution"}, {"id": 2932, "documentId": "6518cd61-3508-4299-9cff-52a0f2ad13b5", "lat": 6.04, "lon": 37.55, "terminalId": "AWT00189", "city": null, "telephone": null, "createdAt": null, "updatedAt": null, "publishedAt": "2025-11-01T09:05:40.788Z", "atmName": "ABAYA", "branch": "WOLAITA SODO", "district": "ABAYA BRANCH ATM 1", "locationType": "1", "locationTypeDesc": "Financial Institution"}, {"id": 2933, "documentId": "e88dc897-b6dd-484c-b6a2-570d5e513246", "lat": 9.08, "lon": 40.87, "terminalId": "ADE00040", "city": null, "telephone": null, "createdAt": null, "updatedAt": null, "publishedAt": "2025-11-01T09:05:40.790Z", "atmName": "Abay Ber", "branch": "DESSIE", "district": "ABAYBER BRANCH ATM 1", "locationType": "1", "locationTypeDesc": "Financial Institution"}, {"id": 2934, "documentId": "9786c859-a85b-471f-87ad-eab139a69035", "lat": 11.6, "lon": 37.41, "terminalId": "ABD00043", "city": null, "telephone": null, "createdAt": null, "updatedAt": null, "publishedAt": "2025-11-01T09:05:40.794Z", "atmName": "Abay Mado", "branch": "BAHIR DAR", "district": "ABAY MADO BRANCH ATM 2", "locationType": "1", "locationTypeDesc": "Financial Institution"}, {"id": 2935, "documentId": "14370dae-ad77-4509-8df6-ab1a6873c49f", "lat": 11.6, "lon": 37.41, "terminalId": "ABD00105", "city": null, "telephone": null, "createdAt": null, "updatedAt": null, "publishedAt": "2025-11-01T09:05:40.796Z", "atmName": "Abay Mado", "branch": "BAHIR DAR", "district": "ABAY MADO BRANCH ATM 1", "locationType": "1", "locationTypeDesc": "Financial Institution"}, {"id": 2936, "documentId": "0b21d6fb-402b-4390-8339-43b3401934ee", "lat": 11.6, "lon": 37.41, "terminalId": "ABD00158", "city": null, "telephone": null, "createdAt": null, "updatedAt": null, "publishedAt": "2025-11-01T09:05:40.798Z", "atmName": "Abay Mado", "branch": "BAHIR DAR", "district": "ABAY MADO BRANCH ATM 3", "locationType": "1", "locationTypeDesc": "Financial Institution"}, {"id": 2937, "documentId": "60b59f73-571c-4167-8cfb-6024383e59f1", "lat": 10.98, "lon": 37.2, "terminalId": "ABD00221", "city": null, "telephone": null, "createdAt": null, "updatedAt": null, "publishedAt": "2025-11-01T09:05:40.801Z", "atmName": "Abay Minch", "branch": "BAHIR DAR", "district": "ABAY MINCH BRANCH ATM 2", "locationType": "1", "locationTypeDesc": "Financial Institution"}, {"id": 2938, "documentId": "1aaec63f-9222-4408-8352-98eab54b9683", "lat": 10.98, "lon": 37.2, "terminalId": "ABD00024", "city": null, "telephone": null, "createdAt": null, "updatedAt": null, "publishedAt": "2025-11-01T09:05:40.803Z", "atmName": "Abay Minch", "branch": "BAHIR DAR", "district": "ABAYMINCH BRANCH ATM 1", "locationType": "1", "locationTypeDesc": "Financial Institution"}, {"id": 2939, "documentId": "b35764c4-afe3-4dc4-8db9-0c2fd490e3aa", "lat": 9.61, "lon": 41.82, "terminalId": "ADM00073", "city": null, "telephone": null, "createdAt": null, "updatedAt": null, "publishedAt": "2025-11-01T09:05:40.805Z", "atmName": "ABAY SHELEKO", "branch": "Debre Markos", "district": "Abay Sheleko BRANCH ATM1", "locationType": "1", "locationTypeDesc": "Financial Institution"}, {"id": 2940, "documentId": "9e5f3732-9f1b-4015-8a78-047405fea36f", "lat": 9.03, "lon": 38.67, "terminalId": "AKF00023", "city": null, "telephone": null, "createdAt": null, "updatedAt": null, "publishedAt": "2025-11-01T09:05:40.808Z", "atmName": "Abdi Nono", "branch": "KOLFE", "district": "ABDI NONO BRANCH ATM 01", "locationType": "1", "locationTypeDesc": "Financial Institution"}, {"id": 2941, "documentId": "b4661001-54f3-4cdd-9a74-be98c3f6b6ed", "lat": 9.03, "lon": 38.67, "terminalId": "AKF00024", "city": null, "telephone": null, "createdAt": null, "updatedAt": null, "publishedAt": "2025-11-01T09:05:40.810Z", "atmName": "Abdi Nono", "branch": "KOLFE", "district": "ABDINONO BRANCH ATM2", "locationType": "1", "locationTypeDesc": "Financial Institution"}, {"id": 2942, "documentId": "3967eba4-068e-4513-9383-a14e92763f0e", "lat": 9.19, "lon": 35.83, "terminalId": "ANK00014", "city": null, "telephone": null, "createdAt": null, "updatedAt": null, "publishedAt": "2025-11-01T09:05:40.813Z", "atmName": "Abdisa Aga", "branch": "NEKEMTE", "district": "ABDISA AGA BRANCH ATM 1", "locationType": "1", "locationTypeDesc": "Financial Institution"}, {"id": 2943, "documentId": "9b6aa031-8822-4a56-b7e9-657755caa955", "lat": 9.19, "lon": 35.83, "terminalId": "ANK00143", "city": null, "telephone": null, "createdAt": null, "updatedAt": null, "publishedAt": "2025-11-01T09:05:40.816Z", "atmName": "Abdisa Aga", "branch": "NEKEMTE", "district": "ABDIS AGA BRANCH ATM 2", "locationType": "1", "locationTypeDesc": "Financial Institution"}, {"id": 2944, "documentId": "365a3638-e50d-43fd-bb1d-e0aba598a7ae", "lat": 9.63, "lon": 38.88, "terminalId": "AAR00123", "city": null, "telephone": null, "createdAt": null, "updatedAt": null, "publishedAt": "2025-11-01T09:05:40.818Z", "atmName": "Abebe Bikila", "branch": "ARADA", "district": "ABEBE BIKILA BRANCH ATM 1", "locationType": "1", "locationTypeDesc": "Financial Institution"}, {"id": 2945, "documentId": "ccdc9fc1-cc92-44b1-83e2-728a30763e5f", "lat": 9, "lon": 38.77, "terminalId": "ABL00001", "city": null, "telephone": null, "createdAt": null, "updatedAt": null, "publishedAt": "2025-11-01T09:05:40.820Z", "atmName": "ABEBECH GOBENA", "branch": "BOLE", "district": "ABEBECH GOBENA BRANCH ATM1", "locationType": "1", "locationTypeDesc": "Financial Institution"}, {"id": 2946, "documentId": "47bccf9b-13f7-4064-8dba-3ae9790a5933", "lat": 9.61, "lon": 36.94, "terminalId": "AAM00076", "city": null, "telephone": null, "createdAt": null, "updatedAt": null, "publishedAt": "2025-11-01T09:05:40.823Z", "atmName": "ABE DONGORO", "branch": "AMBO", "district": "ABE DONGORO ATM", "locationType": "1", "locationTypeDesc": "Financial Institution"}, {"id": 2947, "documentId": "def04c70-97ec-4593-8264-431c29238fa4", "lat": 6.16, "lon": 38.21, "terminalId": "ADM00005", "city": null, "telephone": null, "createdAt": null, "updatedAt": null, "publishedAt": "2025-11-01T09:05:40.825Z", "atmName": "Abima", "branch": "Debre Markos", "district": "Abima branch ATM2", "locationType": "1", "locationTypeDesc": "Financial Institution"}, {"id": 2948, "documentId": "8453ae29-f17c-4463-88e4-4c2350358e58", "lat": 6.16, "lon": 38.21, "terminalId": "ADM00004", "city": null, "telephone": null, "createdAt": null, "updatedAt": null, "publishedAt": "2025-11-01T09:05:40.828Z", "atmName": "Abima", "branch": "Debre Markos", "district": "Abima branch ATM1", "locationType": "1", "locationTypeDesc": "Financial Institution"}, {"id": 2949, "documentId": "7bdff412-cca2-46c8-a356-a5274087623e", "lat": 9.02, "lon": 38.73, "terminalId": "AKR00132", "city": null, "telephone": null, "createdAt": null, "updatedAt": null, "publishedAt": "2025-11-01T09:05:40.830Z", "atmName": "Abinet", "branch": "KIRKOS", "district": "ABINET BRANCH ATM 3", "locationType": "1", "locationTypeDesc": "Financial Institution"}, {"id": 2950, "documentId": "9e5f4e41-98be-409a-83b1-3badeb13ac45", "lat": 9.02, "lon": 38.73, "terminalId": "AKR00130", "city": null, "telephone": null, "createdAt": null, "updatedAt": null, "publishedAt": "2025-11-01T09:05:40.833Z", "atmName": "Abinet", "branch": "KIRKOS", "district": "ABINET BRANCH ATM", "locationType": "1", "locationTypeDesc": "Financial Institution"}, {"id": 2951, "documentId": "933313c6-073d-4f97-9955-0baf079dde6f", "lat": 9.32, "lon": 42.12, "terminalId": "AJJ00002", "city": null, "telephone": null, "createdAt": null, "updatedAt": null, "publishedAt": "2025-11-01T09:05:40.836Z", "atmName": "Aboker", "branch": "JIJIGA", "district": "ABOKER BRANCH ATM 1", "locationType": "1", "locationTypeDesc": "Financial Institution"}, {"id": 2952, "documentId": "83d550d9-9b04-4333-816b-b38c66b85f25", "lat": 9.32, "lon": 42.12, "terminalId": "AJJ00003", "city": null, "telephone": null, "createdAt": null, "updatedAt": null, "publishedAt": "2025-11-01T09:05:40.838Z", "atmName": "Aboker", "branch": "JIJIGA", "district": "ABOKER BRANCH ATM 2", "locationType": "1", "locationTypeDesc": "Financial Institution"}, {"id": 2953, "documentId": "693af09e-a432-460a-8fa4-f15d5b08419e", "lat": 8.99, "lon": 38.73, "terminalId": "AKR00120", "city": null, "telephone": null, "createdAt": null, "updatedAt": null, "publishedAt": "2025-11-01T09:05:40.840Z", "atmName": "Abo Mazoria", "branch": "KIRKOS", "district": "ABO MAZORIA BRANCH ATM 2", "locationType": "1", "locationTypeDesc": "Financial Institution"}, {"id": 2954, "documentId": "e9a39c08-fc32-4713-be14-d5103adb25b5", "lat": 8.99, "lon": 38.73, "terminalId": "AKR00119", "city": null, "telephone": null, "createdAt": null, "updatedAt": null, "publishedAt": "2025-11-01T09:05:40.843Z", "atmName": "Abo Mazoria", "branch": "KIRKOS", "district": "ABO MAZORIA BRANCH ATM1", "locationType": "1", "locationTypeDesc": "Financial Institution"}, {"id": 2955, "documentId": "237f4b82-c4e2-4bac-baf3-80a37d951fcf", "lat": 8.99, "lon": 38.74, "terminalId": "AKR00121", "city": null, "telephone": null, "createdAt": null, "updatedAt": null, "publishedAt": "2025-11-01T09:05:40.845Z", "atmName": "Abo Mazoria", "branch": "KIRKOS", "district": "FACILITY MANAGEMENT ATM", "locationType": "11", "locationTypeDesc": "office Building"}, {"id": 2956, "documentId": "5c20bba7-0417-4d09-832b-a2462a185f0f", "lat": 8.38, "lon": 39.68, "terminalId": "AAS00050", "city": null, "telephone": null, "createdAt": null, "updatedAt": null, "publishedAt": "2025-11-01T09:05:40.848Z", "atmName": "Abomsa", "branch": "ASSELA", "district": "ABOMSA BRANCH ATM 2", "locationType": "1", "locationTypeDesc": "Financial Institution"}, {"id": 2957, "documentId": "9bd7eba7-6bd2-4b5c-8122-63300d5a89a5", "lat": 7.03, "lon": 38.49, "terminalId": "AGD00091", "city": null, "telephone": null, "createdAt": null, "updatedAt": null, "publishedAt": "2025-11-01T09:05:40.850Z", "atmName": "Abrahajera", "branch": "GONDAR", "district": "ABRHAJIRA BRANCH ATM", "locationType": "1", "locationTypeDesc": "Financial Institution"}, {"id": 2958, "documentId": "8957ae5a-d06b-4201-89e7-6627dd65c187", "lat": 11.61, "lon": 39.63, "terminalId": "ADE00221", "city": null, "telephone": null, "createdAt": null, "updatedAt": null, "publishedAt": "2025-11-01T09:05:40.854Z", "atmName": "AbubekerSedik", "branch": "DESSIE", "district": "ABUBEKER SEDIK BRANCH ATM", "locationType": "1", "locationTypeDesc": "Financial Institution"}, {"id": 2959, "documentId": "821cb622-2cc0-49a0-9473-ce0246b02b64", "lat": 9.61, "lon": 37.99, "terminalId": "AAM00034", "city": null, "telephone": null, "createdAt": null, "updatedAt": null, "publishedAt": "2025-11-01T09:05:40.856Z", "atmName": "ABUNA", "branch": "AMBO", "district": "ABUNA BRANCH ATM 1", "locationType": "1", "locationTypeDesc": "Financial Institution"}, {"id": 2960, "documentId": "05d2ca06-3c66-44f9-a1a9-2bff70030efb", "lat": 9.04, "lon": 38.75, "terminalId": "AMR00004", "city": null, "telephone": null, "createdAt": null, "updatedAt": null, "publishedAt": "2025-11-01T09:05:40.858Z", "atmName": "Abune Petros", "branch": "MERKATO", "district": "ABUNE PETROS BRANCH ATM 1", "locationType": "1", "locationTypeDesc": "Financial Institution"}, {"id": 2961, "documentId": "bb0dd3f3-9b0f-4415-b04e-c4e9f8ec6a97", "lat": 10.32, "lon": 37.72, "terminalId": "ADM00083", "city": null, "telephone": null, "createdAt": null, "updatedAt": null, "publishedAt": "2025-11-01T09:05:40.861Z", "atmName": "Abune Tewoflos", "branch": "Debre Markos", "district": "Abune Tewoflos branch ATM", "locationType": "1", "locationTypeDesc": "Financial Institution"}, {"id": 2962, "documentId": "82a7b875-93cd-4dd2-9340-f597e6bf1253", "lat": 8.65, "lon": 38.74, "terminalId": "ANS00108", "city": null, "telephone": null, "createdAt": null, "updatedAt": null, "publishedAt": "2025-11-01T09:05:40.863Z", "atmName": "ABUSERA", "branch": "NEFAS SILK", "district": "ABUSERA BRANCH ATM1", "locationType": "1", "locationTypeDesc": "Financial Institution"}, {"id": 2963, "documentId": "00cbee8e-2443-4b2c-a628-231eb20147e7", "lat": 9.03, "lon": 38.78, "terminalId": "AYK00113", "city": null, "telephone": null, "createdAt": null, "updatedAt": null, "publishedAt": "2025-11-01T09:05:40.866Z", "atmName": "Abware", "branch": "YEKA", "district": "ABWARE BRANCH ATM 1", "locationType": "1", "locationTypeDesc": "Financial Institution"}, {"id": 2964, "documentId": "b22b649c-3c11-4ed4-8d73-5465143aae0e", "lat": 8.99, "lon": 38.79, "terminalId": "ABR00003", "city": null, "telephone": null, "createdAt": null, "updatedAt": null, "publishedAt": "2025-11-01T09:05:40.868Z", "atmName": "Adaba", "branch": "BALE ROBE", "district": "ADABA BRANCH ATM 3", "locationType": "1", "locationTypeDesc": "Financial Institution"}, {"id": 2965, "documentId": "a10b03e6-3000-4929-8e1c-ce5a8a1d29ad", "lat": 8.99, "lon": 38.79, "terminalId": "ABR00002", "city": null, "telephone": null, "createdAt": null, "updatedAt": null, "publishedAt": "2025-11-01T09:05:40.871Z", "atmName": "Adaba", "branch": "BALE ROBE", "district": "ADABA BRANCH ATM 2", "locationType": "1", "locationTypeDesc": "Financial Institution"}, {"id": 2966, "documentId": "30010382-512c-416e-a5f2-27fd91214d96", "lat": 11.09, "lon": 39.6, "terminalId": "AWL00011", "city": null, "telephone": null, "createdAt": null, "updatedAt": null, "publishedAt": "2025-11-01T09:05:40.874Z", "atmName": "ADAGO", "branch": "WOLDIA", "district": "ADAGO BRANCH ATM 2", "locationType": "1", "locationTypeDesc": "Financial Institution"}, {"id": 2967, "documentId": "f320fd3d-377b-4421-b950-968590569c46", "lat": 11.09, "lon": 39.6, "terminalId": "AWL00010", "city": null, "telephone": null, "createdAt": null, "updatedAt": null, "publishedAt": "2025-11-01T09:05:40.876Z", "atmName": "ADAGO", "branch": "WOLDIA", "district": "ADAGO BRANCH ATM 01", "locationType": "1", "locationTypeDesc": "Financial Institution"}, {"id": 2968, "documentId": "1a695512-5775-4a4a-b53d-a2d4757745a2", "lat": 11.09, "lon": 39.6, "terminalId": "AWL00012", "city": null, "telephone": null, "createdAt": null, "updatedAt": null, "publishedAt": "2025-11-01T09:05:40.879Z", "atmName": "ADAGO", "branch": "WOLDIA", "district": "ADAGO BRANCH ATM 3", "locationType": "1", "locationTypeDesc": "Financial Institution"}, {"id": 2969, "documentId": "0ecd468d-6a7e-49bc-b867-2a7525d633ed", "lat": 11.09, "lon": 39.6, "terminalId": "AWL00083", "city": null, "telephone": null, "createdAt": null, "updatedAt": null, "publishedAt": "2025-11-01T09:05:40.881Z", "atmName": "ADAGO", "branch": "WOLDIA", "district": "Adago Branch ATM 4", "locationType": "1", "locationTypeDesc": "Financial Institution"}, {"id": 2970, "documentId": "1a6619d8-5155-4db4-9dbe-9d8fb1e790f5", "lat": 8.55, "lon": 39.27, "terminalId": "AAD00169", "city": null, "telephone": null, "createdAt": null, "updatedAt": null, "publishedAt": "2025-11-01T09:05:40.884Z", "atmName": "Adama", "branch": "ADAMA", "district": "ADAMA BRANCH ATM 5", "locationType": "1", "locationTypeDesc": "Financial Institution"}, {"id": 2971, "documentId": "4c12870c-768e-4403-8ca2-f2e2a2850d39", "lat": 8.56, "lon": 39.29, "terminalId": "AAD00050", "city": null, "telephone": null, "createdAt": null, "updatedAt": null, "publishedAt": "2025-11-01T09:05:40.886Z", "atmName": "Adama", "branch": "ADAMA", "district": "ADAMA UNIVERSITY ATM", "locationType": "17", "locationTypeDesc": "University"}, {"id": 2972, "documentId": "4f22e5dc-4e2c-4c23-8ea1-79c99045321c", "lat": 8.55, "lon": 39.27, "terminalId": "AAD00032", "city": null, "telephone": null, "createdAt": null, "updatedAt": null, "publishedAt": "2025-11-01T09:05:40.889Z", "atmName": "Adama", "branch": "ADAMA", "district": "ADMA BRANCH ATM 1", "locationType": "1", "locationTypeDesc": "Financial Institution"}, {"id": 2973, "documentId": "69ef9f6a-e96f-49c2-a316-b601e230cc3b", "lat": 8.55, "lon": 39.27, "terminalId": "AAD00045", "city": null, "telephone": null, "createdAt": null, "updatedAt": null, "publishedAt": "2025-11-01T09:05:40.891Z", "atmName": "Adama", "branch": "ADAMA", "district": "ADAMA TELE OFFICE ATM", "locationType": "11", "locationTypeDesc": "Office Building"}, {"id": 2974, "documentId": "ff9c123e-ba07-4865-ac05-d205bdd68d64", "lat": 8.55, "lon": 39.27, "terminalId": "AAD00080", "city": null, "telephone": null, "createdAt": null, "updatedAt": null, "publishedAt": "2025-11-01T09:05:40.895Z", "atmName": "Adama", "branch": "ADAMA", "district": "ADAMA BRANCH ATM 2", "locationType": "1", "locationTypeDesc": "Financial Institution"}, {"id": 2975, "documentId": "6a46e3b1-aa09-4bb0-b5d2-c03faf3a332b", "lat": 8.52, "lon": 39.3, "terminalId": "AAD00189", "city": null, "telephone": null, "createdAt": null, "updatedAt": null, "publishedAt": "2025-11-01T09:05:40.897Z", "atmName": "ADAMA INDUSTRIAL PARKS", "branch": "ADAMA", "district": "ADAMA INDUSTRY PARK ATM3", "locationType": "14", "locationTypeDesc": "Other"}, {"id": 2976, "documentId": "287e6d60-dd9c-44c0-97b7-3a2531be5deb", "lat": 8.52, "lon": 39.3, "terminalId": "AAD00188", "city": null, "telephone": null, "createdAt": null, "updatedAt": null, "publishedAt": "2025-11-01T09:05:40.900Z", "atmName": "ADAMA INDUSTRIAL PARKS", "branch": "ADAMA", "district": "ADAMA INDUSTRY PARK ATM2", "locationType": "14", "locationTypeDesc": "Other"}, {"id": 2977, "documentId": "ccb249d4-f504-476b-945e-42896bdfedc6", "lat": 8.52, "lon": 39.3, "terminalId": "AAD00154", "city": null, "telephone": null, "createdAt": null, "updatedAt": null, "publishedAt": "2025-11-01T09:05:40.902Z", "atmName": "ADAMA INDUSTRIAL PARKS", "branch": "ADAMA", "district": "ADAMA INDUSTRIAL PARK BRANCH FOREX ATM", "locationType": "1", "locationTypeDesc": "Financial Institution"}, {"id": 2978, "documentId": "5ef0ecac-b693-4210-8775-d0e04911f9b4", "lat": 7.87, "lon": 38.71, "terminalId": "ASH00133", "city": null, "telephone": null, "createdAt": null, "updatedAt": null, "publishedAt": "2025-11-01T09:05:40.904Z", "atmName": "Adami Tulu", "branch": "SHASHEMENE", "district": "ADAMI TULU BRANCH ATM 1", "locationType": "1", "locationTypeDesc": "Financial Institution"}, {"id": 2979, "documentId": "4a6027d0-6c4f-44c8-a39c-7a5fb06ed53d", "lat": 7.04, "lon": 38.36, "terminalId": "AHW00008", "city": null, "telephone": null, "createdAt": null, "updatedAt": null, "publishedAt": "2025-11-01T09:05:40.907Z", "atmName": "Adare", "branch": "HAWASSA", "district": "TOGA MILITARY COMP ATM", "locationType": "10", "locationTypeDesc": "Military Base"}, {"id": 2980, "documentId": "9446a487-82c7-4257-9219-ae977df97399", "lat": 7.83, "lon": 38.18, "terminalId": "AHW00034", "city": null, "telephone": null, "createdAt": null, "updatedAt": null, "publishedAt": "2025-11-01T09:05:40.909Z", "atmName": "Adare", "branch": "HAWASSA", "district": "ADARE BRANCH", "locationType": "1", "locationTypeDesc": "Financial Institution"}, {"id": 2981, "documentId": "f864eb0f-6313-48be-8f03-7dab0c1033ff", "lat": 8.29, "lon": 37.75, "terminalId": "AHW00074", "city": null, "telephone": null, "createdAt": null, "updatedAt": null, "publishedAt": "2025-11-01T09:05:40.912Z", "atmName": "Adare", "branch": "HAWASSA", "district": "ADARE BRANCH ATM 2", "locationType": "1", "locationTypeDesc": "Financial Institution"}, {"id": 2982, "documentId": "824beba2-aca5-4229-bf22-6d8276ae87c5", "lat": 9.03, "lon": 38.76, "terminalId": "AAR00141", "city": null, "telephone": null, "createdAt": null, "updatedAt": null, "publishedAt": "2025-11-01T09:05:40.915Z", "atmName": "Addis Ababa", "branch": "ARADA", "district": "IMMIGRATION ATM", "locationType": "11", "locationTypeDesc": "Office Building"}, {"id": 2983, "documentId": "ba925a43-e10f-45f4-b7d7-71d32ad653ad", "lat": 9.02, "lon": 38.75, "terminalId": "AAR00150", "city": null, "telephone": null, "createdAt": null, "updatedAt": null, "publishedAt": "2025-11-01T09:05:40.917Z", "atmName": "Addis Ababa", "branch": "ARADA", "district": "POST OFFICE OUTLET ATM", "locationType": "14", "locationTypeDesc": "other"}, {"id": 2984, "documentId": "9889b012-4c38-40fb-b78b-12d65ec92d35", "lat": 9.03, "lon": 38.76, "terminalId": "AAR00147", "city": null, "telephone": null, "createdAt": null, "updatedAt": null, "publishedAt": "2025-11-01T09:05:40.920Z", "atmName": "Addis Ababa", "branch": "ARADA", "district": "WEDAJNET PARK ATM1", "locationType": "26", "locationTypeDesc": "Amusement Park"}, {"id": 2985, "documentId": "87e17b96-0760-4766-9fc4-ab3a9a124678", "lat": 9.02, "lon": 38.75, "terminalId": "AAR00032", "city": null, "telephone": null, "createdAt": null, "updatedAt": null, "publishedAt": "2025-11-01T09:05:40.922Z", "atmName": "Addis Ababa", "branch": "ARADA", "district": "ADDIS ABABA BRANCH ATM 4", "locationType": "1", "locationTypeDesc": "Financial Institution"}, {"id": 2986, "documentId": "e78c8ee5-50d9-4104-9fa6-f9cc68988fb7", "lat": 9.03, "lon": 38.76, "terminalId": "AAR00148", "city": null, "telephone": null, "createdAt": null, "updatedAt": null, "publishedAt": "2025-11-01T09:05:40.925Z", "atmName": "Addis Ababa", "branch": "ARADA", "district": "WEDAJNET PARK ATM2", "locationType": "26", "locationTypeDesc": "Amusement Park"}, {"id": 2987, "documentId": "fca28453-1afa-48e9-9075-823bafe56b14", "lat": 9.02, "lon": 38.75, "terminalId": "AAR00051", "city": null, "telephone": null, "createdAt": null, "updatedAt": null, "publishedAt": "2025-11-01T09:05:40.927Z", "atmName": "Addis Ababa", "branch": "ARADA", "district": "POST OFFICE ATM", "locationType": "14", "locationTypeDesc": "Other"}, {"id": 4896, "documentId": "712c55d0-b630-4e02-94b7-b6d25535bf4a", "lat": 8.99, "lon": 38.76, "terminalId": "ABR00038", "city": null, "telephone": null, "createdAt": null, "updatedAt": null, "publishedAt": "2025-11-01T09:12:40.067Z", "atmName": "Meliyu", "branch": "BALE ROBE", "district": "MELIYU BRANCH ATM 1", "locationType": "1", "locationTypeDesc": "Financial Institution"}, {"id": 2989, "documentId": "7b83cfe9-543e-4443-9775-39299dc214c7", "lat": 9.02, "lon": 38.75, "terminalId": "AAR00048", "city": null, "telephone": null, "createdAt": null, "updatedAt": null, "publishedAt": "2025-11-01T09:05:40.932Z", "atmName": "Addis Ababa", "branch": "ARADA", "district": "MINISTRY OF DEFENCE HEAD QUARTER ATM", "locationType": "10", "locationTypeDesc": "Military Base"}, {"id": 4897, "documentId": "1eda6c20-20ab-431f-a749-e0b7d2a9c6e0", "lat": 9.62, "lon": 41.78, "terminalId": "ADD00133", "city": null, "telephone": null, "createdAt": null, "updatedAt": null, "publishedAt": "2025-11-01T09:12:40.074Z", "atmName": "Melkajebdu", "branch": "DIRE DAWA", "district": "MELKAJEBU BRANCH ATM 1", "locationType": "19", "locationTypeDesc": "Financial Institution"}, {"id": 4898, "documentId": "76bbcc06-055f-496c-bf78-01a412774b1f", "lat": 7.21, "lon": 38.62, "terminalId": "ASH00161", "city": null, "telephone": null, "createdAt": null, "updatedAt": null, "publishedAt": "2025-11-01T09:12:40.084Z", "atmName": "Melkaoda", "branch": "SHASHEMENE", "district": "MELKA ODA BRANCH ATM 2", "locationType": "1", "locationTypeDesc": "Financial Institution"}, {"id": 2992, "documentId": "f9841a09-3906-4934-aead-74e73c8a45f2", "lat": 9.02, "lon": 38.75, "terminalId": "AAR00053", "city": null, "telephone": null, "createdAt": null, "updatedAt": null, "publishedAt": "2025-11-01T09:05:40.940Z", "atmName": "Addis Ababa", "branch": "ARADA", "district": "ETHIOPIA HOTEL ATM 2", "locationType": "19", "locationTypeDesc": "Hotel"}, {"id": 2993, "documentId": "e9d21c98-a75a-42d6-8649-04c7dda3cdee", "lat": 9.03, "lon": 38.71, "terminalId": "AKF00004", "city": null, "telephone": null, "createdAt": null, "updatedAt": "2025-11-01T09:05:23.472Z", "publishedAt": "2025-11-01T09:05:41.014Z", "atmName": "18 Adebabay", "branch": "KOLFE", "district": "ASRASEMENT ADEBABAY BRANCH ATM 1", "locationType": "1", "locationTypeDesc": "Financial Institution"}, {"id": 2994, "documentId": "95524ce3-13e9-4ae2-a89d-1920ffcd65a9", "lat": 9.02, "lon": 38.75, "terminalId": "AAR00029", "city": null, "telephone": null, "createdAt": null, "updatedAt": null, "publishedAt": "2025-11-01T09:06:06.777Z", "atmName": "Addis Ababa", "branch": "ARADA", "district": "ADDIS ABABA BRANCH ATM 1", "locationType": "1", "locationTypeDesc": "Financial Institution"}, {"id": 2995, "documentId": "d267e151-4567-4e72-a701-2f8b621017bc", "lat": 9.05, "lon": 38.73, "terminalId": "AMR00005", "city": null, "telephone": null, "createdAt": null, "updatedAt": null, "publishedAt": "2025-11-01T09:06:06.780Z", "atmName": "ADDIS HIWOT CONDOMINIU", "branch": "MERKATO", "district": "ADDIS HIWOT CONDOMINIUM BRANCH ATM 1", "locationType": "1", "locationTypeDesc": "Financial Institution"}, {"id": 2996, "documentId": "ea9b5cc3-d3e8-4173-907b-d3c5ffe24862", "lat": 9.03, "lon": 38.72, "terminalId": "AMR00008", "city": null, "telephone": null, "createdAt": null, "updatedAt": null, "publishedAt": "2025-11-01T09:06:06.782Z", "atmName": "Addis Ketema", "branch": "MERKATO", "district": "ADDIS KETEMA BRANCH ATM 3", "locationType": "1", "locationTypeDesc": "Financial Institution"}, {"id": 2997, "documentId": "ebfcd2a1-0e8f-4bac-a1c6-0e3bfcc90d9f", "lat": 9.03, "lon": 38.74, "terminalId": "AMR00007", "city": null, "telephone": null, "createdAt": null, "updatedAt": null, "publishedAt": "2025-11-01T09:06:06.784Z", "atmName": "Addis Ketema", "branch": "MERKATO", "district": "ADDIS KETEMA ATM2", "locationType": "1", "locationTypeDesc": "Financial Institution"}, {"id": 2998, "documentId": "31d8f9fb-4ae8-43d6-b8d1-fc30db81a0cc", "lat": 9.03, "lon": 38.74, "terminalId": "AMR00006", "city": null, "telephone": null, "createdAt": null, "updatedAt": null, "publishedAt": "2025-11-01T09:06:06.787Z", "atmName": "Addis Ketema", "branch": "MERKATO", "district": "ADDIS KETEMA BRANCH ATM 1", "locationType": "1", "locationTypeDesc": "Financial Institution"}, {"id": 2999, "documentId": "f548e68a-f829-4627-b03c-77ad9d325dfa", "lat": 9.03, "lon": 38.74, "terminalId": "AMR00009", "city": null, "telephone": null, "createdAt": null, "updatedAt": null, "publishedAt": "2025-11-01T09:06:06.791Z", "atmName": "Addis Ketema", "branch": "MERKATO", "district": "ADDIS KETEMA BRANCH ATM 4", "locationType": "1", "locationTypeDesc": "Financial Institution"}, {"id": 3000, "documentId": "14b410b6-45a7-4f86-823a-f971c05c8ef2", "lat": 11.08, "lon": 36.87, "terminalId": "ABD00100", "city": null, "telephone": null, "createdAt": null, "updatedAt": null, "publishedAt": "2025-11-01T09:06:06.793Z", "atmName": "Addis Kidamie", "branch": "BAHIR DAR", "district": "ADDISKIDAME BRANCH ATM 1", "locationType": "1", "locationTypeDesc": "Financial Institution"}, {"id": 3001, "documentId": "6d3b81d0-b802-4b79-b92f-840ec23b132d", "lat": 9.06, "lon": 38.74, "terminalId": "AAR00143", "city": null, "telephone": null, "createdAt": null, "updatedAt": null, "publishedAt": "2025-11-01T09:06:06.796Z", "atmName": "Addisu Gebeya", "branch": "ARADA", "district": "GULLELE SUB CITY ATM", "locationType": "11", "locationTypeDesc": "Office Building"}, {"id": 3002, "documentId": "f16714c9-fa8d-49e5-907a-7a2e8d2d6b41", "lat": 9.06, "lon": 38.73, "terminalId": "AAR00101", "city": null, "telephone": null, "createdAt": null, "updatedAt": null, "publishedAt": "2025-11-01T09:06:06.798Z", "atmName": "Addisu Gebeya", "branch": "ARADA", "district": "ADDISU GEBEYA BRANCH ATM 1", "locationType": "1", "locationTypeDesc": "Financial Institution"}, {"id": 3003, "documentId": "93c0e705-49ac-4052-a51c-d6abac8d1d91", "lat": 9.06, "lon": 38.73, "terminalId": "AAR00102", "city": null, "telephone": null, "createdAt": null, "updatedAt": null, "publishedAt": "2025-11-01T09:06:06.801Z", "atmName": "Addisu Gebeya", "branch": "ARADA", "district": "ADDISU GEBEYA BRANCH ATM 2", "locationType": "1", "locationTypeDesc": "Financial Institution"}, {"id": 3004, "documentId": "fde2178b-0653-4752-a41a-f81e79580d6f", "lat": 9.04, "lon": 38.73, "terminalId": "AMR00010", "city": null, "telephone": null, "createdAt": null, "updatedAt": null, "publishedAt": "2025-11-01T09:06:06.803Z", "atmName": "Addisu Michael", "branch": "MERKATO", "district": "ADDISU MICHAEL BRANCH ATM 1", "locationType": "1", "locationTypeDesc": "Financial Institution"}, {"id": 3005, "documentId": "ccfe1f50-a42c-4bdc-8d5c-d4bf4c7d61d6", "lat": 9.04, "lon": 38.73, "terminalId": "AMR00011", "city": null, "telephone": null, "createdAt": null, "updatedAt": null, "publishedAt": "2025-11-01T09:06:06.805Z", "atmName": "Addisu Michael", "branch": "MERKATO", "district": "ADDISU MICHAEL BRANCH ATM 02", "locationType": "1", "locationTypeDesc": "Financial Institution"}, {"id": 3006, "documentId": "02c61bfe-902d-420a-a614-f5539fd45b7a", "lat": 8.54, "lon": 39.27, "terminalId": "AGD00097", "city": null, "telephone": null, "createdAt": null, "updatedAt": null, "publishedAt": "2025-11-01T09:06:06.808Z", "atmName": "Addis Zemen", "branch": "GONDAR", "district": "ADDIS ZEMEN BRANCH ATM 2", "locationType": "1", "locationTypeDesc": "Financial Institution"}, {"id": 3007, "documentId": "77a589ea-1947-495d-9242-ec0156d0bc7f", "lat": 8.75, "lon": 38.97, "terminalId": "ANS00143", "city": null, "telephone": null, "createdAt": null, "updatedAt": null, "publishedAt": "2025-11-01T09:06:06.811Z", "atmName": "Adea", "branch": "NEFAS SILK", "district": "ADEA BRANCH ATM6", "locationType": "1", "locationTypeDesc": "Financial Institution"}, {"id": 3008, "documentId": "2a5bd3c3-fa5b-405a-a6e7-64a0d9548908", "lat": 8.75, "lon": 38.97, "terminalId": "ANS00142", "city": null, "telephone": null, "createdAt": null, "updatedAt": null, "publishedAt": "2025-11-01T09:06:06.814Z", "atmName": "Adea", "branch": "NEFAS SILK", "district": "ADEA BRANCH ATM 5", "locationType": "1", "locationTypeDesc": "Financial Institution"}, {"id": 3009, "documentId": "b1bc7986-868e-4113-8b92-a3133a4862e2", "lat": 8.72, "lon": 39, "terminalId": "ANS00144", "city": null, "telephone": null, "createdAt": null, "updatedAt": null, "publishedAt": "2025-11-01T09:06:06.816Z", "atmName": "Adea", "branch": "NEFAS SILK", "district": "BISHOFTU DEJEN AVIATION ATM", "locationType": "14", "locationTypeDesc": "other"}, {"id": 3010, "documentId": "cce4928f-1a8b-4aee-aada-0d2882e3fd1f", "lat": 7.76, "lon": 39.81, "terminalId": "AAS00034", "city": null, "telephone": null, "createdAt": null, "updatedAt": null, "publishedAt": "2025-11-01T09:06:06.819Z", "atmName": "Adele", "branch": "ASSELA", "district": "ADELE BRANCH ATM 1", "locationType": "1", "locationTypeDesc": "Financial Institution"}, {"id": 3011, "documentId": "8877f589-5d46-4ad5-aefe-aafa6b40cea0", "lat": 11.27, "lon": 37.49, "terminalId": "ABD00131", "city": null, "telephone": null, "createdAt": null, "updatedAt": null, "publishedAt": "2025-11-01T09:06:06.821Z", "atmName": "Adet", "branch": "BAHIR DAR", "district": "ADET BRANCH ATM 2", "locationType": "1", "locationTypeDesc": "Financial Institution"}, {"id": 3012, "documentId": "5ba94578-55ae-4f24-b0a0-cb4dd29dda77", "lat": 11.27, "lon": 37.49, "terminalId": "ABD00081", "city": null, "telephone": null, "createdAt": null, "updatedAt": null, "publishedAt": "2025-11-01T09:06:06.823Z", "atmName": "Adet", "branch": "BAHIR DAR", "district": "ADET BRANCH ATM 1", "locationType": "1", "locationTypeDesc": "Financial Institution"}, {"id": 3013, "documentId": "1909cd31-335f-4523-8e50-80c81f7c9f97", "lat": 9.03, "lon": 38.78, "terminalId": "AYK00088", "city": null, "telephone": null, "createdAt": null, "updatedAt": null, "publishedAt": "2025-11-01T09:06:06.826Z", "atmName": "Adewa Dildy", "branch": "YEKA", "district": "ADWA DELDIY BRANCH ATM 1", "locationType": "1", "locationTypeDesc": "Financial Institution"}, {"id": 3014, "documentId": "e2a2809f-482c-449b-9386-3e6bc0a82157", "lat": 9, "lon": 38.8, "terminalId": "AMG00154", "city": null, "telephone": null, "createdAt": null, "updatedAt": null, "publishedAt": "2025-11-01T09:06:06.828Z", "atmName": "ADEY ABABA STADIUM", "branch": "MEGENAGNA", "district": "ADEY ABEBA STADIUM BRANCH ATM 1", "locationType": "1", "locationTypeDesc": "Financial Institution"}, {"id": 3015, "documentId": "b2a1e36f-ce26-4264-8b93-4545a48b11c2", "lat": 8.95, "lon": 38.76, "terminalId": "ANS00085", "city": null, "telephone": null, "createdAt": null, "updatedAt": null, "publishedAt": "2025-11-01T09:06:06.832Z", "atmName": "Adey Abeba", "branch": "NEFAS SILK", "district": "ADEY ABEBA ATM3", "locationType": "1", "locationTypeDesc": "Financial Institution"}, {"id": 3016, "documentId": "75dc0564-34e7-44c6-94bd-07ca42674de9", "lat": 8.95, "lon": 38.76, "terminalId": "ANS00084", "city": null, "telephone": null, "createdAt": null, "updatedAt": null, "publishedAt": "2025-11-01T09:06:06.834Z", "atmName": "Adey Abeba", "branch": "NEFAS SILK", "district": "ADEY ABEBA ATM 2", "locationType": "1", "locationTypeDesc": "Financial Institution"}, {"id": 3017, "documentId": "71a5d441-5453-43f7-9277-76a5576cf029", "lat": 8.95, "lon": 38.76, "terminalId": "ANS00083", "city": null, "telephone": null, "createdAt": null, "updatedAt": null, "publishedAt": "2025-11-01T09:06:06.836Z", "atmName": "Adey Abeba", "branch": "NEFAS SILK", "district": "ADEY ABEBA BRANCH", "locationType": "1", "locationTypeDesc": "Financial Institution"}, {"id": 3018, "documentId": "b20c130b-b05b-42be-8308-dae9054613b4", "lat": 12.26, "lon": 37.63, "terminalId": "AGD00066", "city": null, "telephone": null, "createdAt": null, "updatedAt": null, "publishedAt": "2025-11-01T09:06:06.839Z", "atmName": "Adi Arkay", "branch": "GONDAR", "district": "ADI ARQAY BRANCH ATM", "locationType": "1", "locationTypeDesc": "Financial Institution"}, {"id": 3019, "documentId": "0bd39e6e-72bb-4f1c-bb48-fa6dcaded235", "lat": 7.21, "lon": 37.98, "terminalId": "AHS00001", "city": null, "telephone": null, "createdAt": null, "updatedAt": null, "publishedAt": "2025-11-01T09:06:06.841Z", "atmName": "ADILO", "branch": "HOSSANA", "district": "ADILO BRANCH ATM 1", "locationType": "1", "locationTypeDesc": "Financial Institution"}, {"id": 3020, "documentId": "ff6ea038-e44b-4595-a1ad-6071b0199ccb", "lat": 13.75, "lon": 37.32, "terminalId": "AMK00085", "city": null, "telephone": null, "createdAt": null, "updatedAt": null, "publishedAt": "2025-11-01T09:06:06.844Z", "atmName": "Adiremtse", "branch": "GONDAR", "district": "Adiremtse Branch ATM", "locationType": "1", "locationTypeDesc": "Financial Institution"}, {"id": 3021, "documentId": "296e4f31-660e-4c53-8c62-b86c19a795ca", "lat": 7.3, "lon": 38.36, "terminalId": "ASH00068", "city": null, "telephone": null, "createdAt": null, "updatedAt": null, "publishedAt": "2025-11-01T09:06:06.846Z", "atmName": "Adje", "branch": "SHASHEMENE", "district": "ADJE BRANCH ATM 1", "locationType": "1", "locationTypeDesc": "Financial Institution"}, {"id": 3022, "documentId": "b7d5270e-9cb3-4098-b49b-9d9bbf378eb0", "lat": 8.08, "lon": 37.76, "terminalId": "AHW00108", "city": null, "telephone": null, "createdAt": null, "updatedAt": null, "publishedAt": "2025-11-01T09:06:06.848Z", "atmName": "Adola", "branch": "HAWASSA", "district": "ADOLA BRANCH ATM 2", "locationType": "1", "locationTypeDesc": "Financial Institution"}, {"id": 3023, "documentId": "4bb2689a-0b30-4055-81b8-463eefef9f2e", "lat": 7.47, "lon": 37.78, "terminalId": "AHW00047", "city": null, "telephone": null, "createdAt": null, "updatedAt": null, "publishedAt": "2025-11-01T09:06:06.852Z", "atmName": "Adola", "branch": "HAWASSA", "district": "ADOLA BRANCH", "locationType": "1", "locationTypeDesc": "Financial Institution"}, {"id": 3024, "documentId": "ffd593cc-7cad-4cd9-92ed-3e3f9d291b3f", "lat": 10.96, "lon": 36.93, "terminalId": "ABD00209", "city": null, "telephone": null, "createdAt": null, "updatedAt": null, "publishedAt": "2025-11-01T09:06:06.854Z", "atmName": "ADUK", "branch": "BAHIR DAR", "district": "ADUK BRANCH ATM 1", "locationType": "1", "locationTypeDesc": "Financial Institution"}, {"id": 3025, "documentId": "8b9a38e3-f624-4470-9752-77b58a49e5aa", "lat": 8.53, "lon": 39.91, "terminalId": "AAD00142", "city": null, "telephone": null, "createdAt": null, "updatedAt": null, "publishedAt": "2025-11-01T09:06:06.857Z", "atmName": "Adulala", "branch": "ADAMA", "district": "ADULALA BRANCH ATM1", "locationType": "1", "locationTypeDesc": "Financial Institution"}, {"id": 3026, "documentId": "db0e2141-b76a-4bb3-9216-199aea4448de", "lat": 8.99, "lon": 38.79, "terminalId": "ABL00003", "city": null, "telephone": null, "createdAt": null, "updatedAt": null, "publishedAt": "2025-11-01T09:06:06.859Z", "atmName": "Adwa Park", "branch": "BOLE", "district": "ADEWAPARK BRANCH ATM1", "locationType": "1", "locationTypeDesc": "Financial Institution"}, {"id": 3027, "documentId": "331185ad-2e50-4724-839d-4726f0bcac28", "lat": 8.99, "lon": 38.79, "terminalId": "ABL00008", "city": null, "telephone": null, "createdAt": null, "updatedAt": null, "publishedAt": "2025-11-01T09:06:06.861Z", "atmName": "Adwa Park", "branch": "BOLE", "district": "SELAM CITY MALL ATM", "locationType": "24", "locationTypeDesc": "Shopping Mall"}, {"id": 3028, "documentId": "3fbda379-96eb-4f67-a372-cb4318971cda", "lat": 8.99, "lon": 38.79, "terminalId": "ABL00006", "city": null, "telephone": null, "createdAt": null, "updatedAt": null, "publishedAt": "2025-11-01T09:06:06.864Z", "atmName": "Adwa Park", "branch": "BOLE", "district": "HIDMONA BLD ATM", "locationType": "24", "locationTypeDesc": "Shopping Mall"}, {"id": 3029, "documentId": "72e42809-0b28-4ee0-b2c7-f3775267d04a", "lat": 8.99, "lon": 38.79, "terminalId": "ABL00004", "city": null, "telephone": null, "createdAt": null, "updatedAt": null, "publishedAt": "2025-11-01T09:06:06.866Z", "atmName": "Adwa Park", "branch": "BOLE", "district": "ADEWA PARK BRANCH ATM2", "locationType": "1", "locationTypeDesc": "Financial Institution"}, {"id": 3030, "documentId": "3baf8605-9b2a-4a50-8076-4d5cff9ee660", "lat": 7.22, "lon": 38.6, "terminalId": "ASH00130", "city": null, "telephone": null, "createdAt": null, "updatedAt": null, "publishedAt": "2025-11-01T09:06:06.869Z", "atmName": "AELU GEBEYA", "branch": "SHASHEMENE", "district": "ALELU GEBEYA BRANCH ATM 1", "locationType": "1", "locationTypeDesc": "Financial Institution"}, {"id": 3031, "documentId": "4126d2ab-3d2a-4d34-b132-d3ed80837e45", "lat": 13.21, "lon": 40.85, "terminalId": "ASM00012", "city": null, "telephone": null, "createdAt": null, "updatedAt": null, "publishedAt": "2025-11-01T09:06:06.872Z", "atmName": "Afdera", "branch": "SEMERA", "district": "AFDERA BRANCH ATM 1", "locationType": "1", "locationTypeDesc": "Financial Institution"}, {"id": 3032, "documentId": "dfab26f8-9434-46ea-95f8-8a19fd8e74d2", "lat": 9.05, "lon": 38.75, "terminalId": "AAR00096", "city": null, "telephone": null, "createdAt": null, "updatedAt": null, "publishedAt": "2025-11-01T09:06:06.874Z", "atmName": "AFINCHO BER", "branch": "ARADA", "district": "AFINCHO BER BRANCH ATM 1", "locationType": "1", "locationTypeDesc": "Financial Institution"}, {"id": 3033, "documentId": "34d8e47c-bdbe-48a5-be13-37f055f7ed7a", "lat": 8.53, "lon": 39.27, "terminalId": "AAD00194", "city": null, "telephone": null, "createdAt": null, "updatedAt": null, "publishedAt": "2025-11-01T09:06:06.877Z", "atmName": "Afiya", "branch": "ADAMA", "district": "Afiya Branch ATM1", "locationType": "1", "locationTypeDesc": "Financial Institution"}, {"id": 3034, "documentId": "daa8b148-aa5c-441c-9e8d-292ec3871cfc", "lat": 9.25, "lon": 41.66, "terminalId": "ADD00023", "city": null, "telephone": null, "createdAt": null, "updatedAt": null, "publishedAt": "2025-11-01T09:06:06.879Z", "atmName": "Afrenkelo", "branch": "DIRE DAWA", "district": "AFRAN KELO BRANCH ATM 1", "locationType": "1", "locationTypeDesc": "Financial Institution"}, {"id": 3035, "documentId": "4fc249e6-f9e3-4d00-87a9-9144b469f9f3", "lat": 8.54, "lon": 37.97, "terminalId": "AAM00041", "city": null, "telephone": null, "createdAt": null, "updatedAt": null, "publishedAt": "2025-11-01T09:06:06.882Z", "atmName": "Afren Wolliso", "branch": "AMBO", "district": "ARFENA WOLISO BRANCH ATM 1", "locationType": "1", "locationTypeDesc": "Financial Institution"}, {"id": 3036, "documentId": "7b8be2b2-f1d1-4b2d-82c6-6081052828ce", "lat": 9, "lon": 38.68, "terminalId": "ABL00012", "city": null, "telephone": null, "createdAt": null, "updatedAt": null, "publishedAt": "2025-11-01T09:06:06.884Z", "atmName": "Africa Avenue", "branch": "BOLE", "district": "UNDP ATM", "locationType": "11", "locationTypeDesc": "Office Building"}, {"id": 3037, "documentId": "d0128bd9-2caa-4776-8b7a-6c21bd9420ac", "lat": 9, "lon": 38.77, "terminalId": "ABL00204", "city": null, "telephone": null, "createdAt": null, "updatedAt": null, "publishedAt": "2025-11-01T09:06:06.886Z", "atmName": "Africa Avenue", "branch": "BOLE", "district": "AMRAN HOTEL ATM", "locationType": "19", "locationTypeDesc": "Hotel"}, {"id": 3038, "documentId": "057a325b-04f2-418f-8d07-826cba08e676", "lat": 9.01, "lon": 38.77, "terminalId": "ABL00010", "city": null, "telephone": null, "createdAt": null, "updatedAt": null, "publishedAt": "2025-11-01T09:06:06.889Z", "atmName": "Africa Avenue", "branch": "BOLE", "district": "AFRICA AVENUE BRANCH ATM1", "locationType": "1", "locationTypeDesc": "Financial Institution"}, {"id": 3039, "documentId": "0e2db93c-aa30-44ea-bec1-c3cbf1c8d792", "lat": 9.01, "lon": 38.76, "terminalId": "ABL00011", "city": null, "telephone": null, "createdAt": null, "updatedAt": null, "publishedAt": "2025-11-01T09:06:06.892Z", "atmName": "Africa Avenue", "branch": "BOLE", "district": "TOMMY TOWER ATM", "locationType": "24", "locationTypeDesc": "Shopping Mall"}, {"id": 3040, "documentId": "82e40334-c719-4eea-b680-3984f92aa100", "lat": 9.01, "lon": 38.77, "terminalId": "ABL00017", "city": null, "telephone": null, "createdAt": null, "updatedAt": null, "publishedAt": "2025-11-01T09:06:06.895Z", "atmName": "Africa Avenue", "branch": "BOLE", "district": "ADDIS ABABA HOUSING ADMINISTRATION ATM", "locationType": "11", "locationTypeDesc": "Office Building"}, {"id": 3041, "documentId": "7ffa2e85-0c65-4680-bb12-914cf0e83d73", "lat": 9.01, "lon": 38.77, "terminalId": "ABL00015", "city": null, "telephone": null, "createdAt": null, "updatedAt": null, "publishedAt": "2025-11-01T09:06:06.897Z", "atmName": "Africa Avenue", "branch": "BOLE", "district": "OROMIA PRESIDENT OFFICE ATM", "locationType": "11", "locationTypeDesc": "Office Building"}, {"id": 3042, "documentId": "f7bc8642-127d-4130-8f1a-ad96abc9b22a", "lat": 9.01, "lon": 38.77, "terminalId": "ABL00014", "city": null, "telephone": null, "createdAt": null, "updatedAt": null, "publishedAt": "2025-11-01T09:06:06.900Z", "atmName": "Africa Avenue", "branch": "BOLE", "district": "INVESTMENT OFFICE BLD ATM", "locationType": "11", "locationTypeDesc": "Office Building"}, {"id": 3043, "documentId": "02a4b01b-8f4c-44b7-b714-86354b13d7e8", "lat": 9.01, "lon": 38.77, "terminalId": "ABL00009", "city": null, "telephone": null, "createdAt": null, "updatedAt": null, "publishedAt": "2025-11-01T09:06:06.902Z", "atmName": "Africa Avenue", "branch": "BOLE", "district": "DEMBEL BLDG ATM", "locationType": "24", "locationTypeDesc": "Shopping Mall"}, {"id": 3044, "documentId": "d58aa409-3176-477c-b405-d03078138cd3", "lat": 9, "lon": 38.76, "terminalId": "AKR00099", "city": null, "telephone": null, "createdAt": null, "updatedAt": null, "publishedAt": "2025-11-01T09:06:06.905Z", "atmName": "AFRICA HIBRET MENGED", "branch": "KIRKOS", "district": "AFRICA HIBRET MENGED BRANCH ATM1", "locationType": "1", "locationTypeDesc": "Financial Institution"}, {"id": 3045, "documentId": "7a7fc297-6bfb-4201-83eb-9e956616552b", "lat": 9.72, "lon": 38.47, "terminalId": "ANK00028", "city": null, "telephone": null, "createdAt": null, "updatedAt": null, "publishedAt": "2025-11-01T09:06:06.907Z", "atmName": "Agamsa", "branch": "NEKEMTE", "district": "AGAMSA BRANCH ATM 1", "locationType": "1", "locationTypeDesc": "Financial Institution"}, {"id": 3046, "documentId": "62af67e0-0c75-4132-8627-8916c2f9d0a8", "lat": 8.99, "lon": 38.78, "terminalId": "ABR00006", "city": null, "telephone": null, "createdAt": null, "updatedAt": null, "publishedAt": "2025-11-01T09:06:06.909Z", "atmName": "Agarfa", "branch": "BALE ROBE", "district": "AGARFA BRANCH ATM 2", "locationType": "1", "locationTypeDesc": "Financial Institution"}, {"id": 3047, "documentId": "1be4d814-1d16-4ac8-8c12-36246ce4acdd", "lat": 8.99, "lon": 38.78, "terminalId": "ABR00005", "city": null, "telephone": null, "createdAt": null, "updatedAt": null, "publishedAt": "2025-11-01T09:06:06.913Z", "atmName": "Agarfa", "branch": "BALE ROBE", "district": "AGARFA COLLEGE ATM", "locationType": "1", "locationTypeDesc": "Financial Institution"}, {"id": 3048, "documentId": "8515c441-1b28-4c8b-8881-4c364c53b5b6", "lat": 8.99, "lon": 38.79, "terminalId": "ABR00004", "city": null, "telephone": null, "createdAt": null, "updatedAt": null, "publishedAt": "2025-11-01T09:06:06.915Z", "atmName": "Agarfa", "branch": "BALE ROBE", "district": "AGARFA BRANCH ATM 1", "locationType": "1", "locationTypeDesc": "Financial Institution"}, {"id": 3049, "documentId": "55440c5b-0f9d-4a2b-a801-cc9ea03eea02", "lat": 7.86, "lon": 36.58, "terminalId": "AJM00023", "city": null, "telephone": null, "createdAt": null, "updatedAt": null, "publishedAt": "2025-11-01T09:06:06.917Z", "atmName": "Agaro", "branch": "JIMMA", "district": "AGARO BRANCH ATM 2", "locationType": "1", "locationTypeDesc": "Financial Institution"}, {"id": 3050, "documentId": "d59c9e75-652b-4de1-8760-04cf1b2dc76c", "lat": 7.86, "lon": 36.58, "terminalId": "AJM00164", "city": null, "telephone": null, "createdAt": null, "updatedAt": null, "publishedAt": "2025-11-01T09:06:06.920Z", "atmName": "Agaro", "branch": "JIMMA", "district": "AGARO BRANCH ATM 3", "locationType": "1", "locationTypeDesc": "Financial Institution"}, {"id": 3051, "documentId": "3edca329-c3a8-4c6c-96cd-25722a216d5f", "lat": 7.86, "lon": 36.58, "terminalId": "AJM00040", "city": null, "telephone": null, "createdAt": null, "updatedAt": null, "publishedAt": "2025-11-01T09:06:06.923Z", "atmName": "Agaro", "branch": "JIMMA", "district": "AGARO BRANCH ATM 1", "locationType": "1", "locationTypeDesc": "Financial Institution"}, {"id": 3052, "documentId": "f9bb513e-9897-4836-a97b-823644aa5afc", "lat": 8.14, "lon": 38.01, "terminalId": "AHS00002", "city": null, "telephone": null, "createdAt": null, "updatedAt": null, "publishedAt": "2025-11-01T09:06:06.925Z", "atmName": "Agena", "branch": "HOSSANA", "district": "AGENA BRANCH ATM", "locationType": "1", "locationTypeDesc": "Financial Institution"}, {"id": 3053, "documentId": "8946f695-904e-418a-af83-a204642b082f", "lat": 5.48, "lon": 37.86, "terminalId": "ADM00019", "city": null, "telephone": null, "createdAt": null, "updatedAt": null, "publishedAt": "2025-11-01T09:06:06.928Z", "atmName": "AGEW GEMJA BET", "branch": "Debre Markos", "district": "AGEW GEMJA BET Branch ATM 1", "locationType": "1", "locationTypeDesc": "Financial Institution"}, {"id": 3054, "documentId": "bf51239b-dac4-40c5-aaad-46821ffd3c58", "lat": 9.01, "lon": 38.77, "terminalId": "ABL00018", "city": null, "telephone": null, "createdAt": null, "updatedAt": null, "publishedAt": "2025-11-01T09:06:06.930Z", "atmName": "Agoza Gebeya", "branch": "BOLE", "district": "AGOZA GEBEYA BRANCH ATM", "locationType": "1", "locationTypeDesc": "Financial Institution"}, {"id": 3055, "documentId": "b30eb1b4-0526-4e29-a5bb-94d5caaff3c6", "lat": 11.26, "lon": 36.85, "terminalId": "ABD00132", "city": null, "telephone": null, "createdAt": null, "updatedAt": null, "publishedAt": "2025-11-01T09:06:06.934Z", "atmName": "Agunta", "branch": "BAHIR DAR", "district": "AGUNTA BRANCH ATM 2", "locationType": "1", "locationTypeDesc": "Financial Institution"}, {"id": 3056, "documentId": "f78af7b8-cde4-4992-9256-b1b738f1e5f5", "lat": 11.26, "lon": 36.85, "terminalId": "ABD00063", "city": null, "telephone": null, "createdAt": null, "updatedAt": null, "publishedAt": "2025-11-01T09:06:06.936Z", "atmName": "Agunta", "branch": "BAHIR DAR", "district": "AGUNTA BRANCH ATM 1", "locationType": "1", "locationTypeDesc": "Financial Institution"}, {"id": 3057, "documentId": "f3c50864-15b6-4259-8e1a-6076794776b8", "lat": 11.87, "lon": 39.29, "terminalId": "AWL00017", "city": null, "telephone": null, "createdAt": null, "updatedAt": null, "publishedAt": "2025-11-01T09:06:06.939Z", "atmName": "AHUNTEGEGN", "branch": "WOLDIA", "district": "AHUNTEGEGN BRANCH ATM 1", "locationType": "1", "locationTypeDesc": "Financial Institution"}, {"id": 3058, "documentId": "484d6c9f-acda-4a6a-9167-bada0af54cc3", "lat": 8.98, "lon": 38.79, "terminalId": "ABL00026", "city": null, "telephone": null, "createdAt": null, "updatedAt": null, "publishedAt": "2025-11-01T09:06:06.941Z", "atmName": "Airport", "branch": "BOLE", "district": "AIRLINES HEAD OFFICE ATM1", "locationType": "11", "locationTypeDesc": "Office Building"}, {"id": 3059, "documentId": "fb3a9ff4-a7e4-44ed-ac9c-2b7b8fc3194e", "lat": 8.98, "lon": 38.8, "terminalId": "ABL00023", "city": null, "telephone": null, "createdAt": null, "updatedAt": null, "publishedAt": "2025-11-01T09:06:06.943Z", "atmName": "Airport", "branch": "BOLE", "district": "AIRPORT AIRVAL ATM2", "locationType": "2", "locationTypeDesc": "Airport"}, {"id": 3060, "documentId": "0029f2f4-2206-410d-98b2-13811f343ada", "lat": 8.99, "lon": 38.79, "terminalId": "ABL00031", "city": null, "telephone": null, "createdAt": null, "updatedAt": null, "publishedAt": "2025-11-01T09:06:06.946Z", "atmName": "Airport", "branch": "BOLE", "district": "SKY LIGHT HOTEL FOREX ATM", "locationType": "19", "locationTypeDesc": "Hotel"}, {"id": 3061, "documentId": "86547a1e-e6cb-46fa-b1ef-b4828aa6412e", "lat": 8.99, "lon": 38.79, "terminalId": "ABL00030", "city": null, "telephone": null, "createdAt": null, "updatedAt": null, "publishedAt": "2025-11-01T09:06:06.948Z", "atmName": "Airport", "branch": "BOLE", "district": "SKY LIGHT HOTEL ATM", "locationType": "19", "locationTypeDesc": "Hotel"}, {"id": 3062, "documentId": "a5331b15-2f32-473d-b7ab-1a1bf7963ca1", "lat": 8.99, "lon": 38.79, "terminalId": "ABL00020", "city": null, "telephone": null, "createdAt": null, "updatedAt": null, "publishedAt": "2025-11-01T09:06:06.950Z", "atmName": "Airport", "branch": "BOLE", "district": "AIRPORT BRANCH ATM2", "locationType": "1", "locationTypeDesc": "Financial Institution"}, {"id": 3063, "documentId": "5808c95b-2e50-4358-86d6-69e7e853b8e3", "lat": 8.99, "lon": 38.79, "terminalId": "ABL00021", "city": null, "telephone": null, "createdAt": null, "updatedAt": null, "publishedAt": "2025-11-01T09:06:06.954Z", "atmName": "Airport", "branch": "BOLE", "district": "AIRPORT VIP SALON FOREX ATM", "locationType": "2", "locationTypeDesc": "Airport"}, {"id": 3064, "documentId": "4b4225f4-9b63-42ba-90fa-652df29b7c11", "lat": 8.99, "lon": 38.79, "terminalId": "ABL00019", "city": null, "telephone": null, "createdAt": null, "updatedAt": null, "publishedAt": "2025-11-01T09:06:06.956Z", "atmName": "Airport", "branch": "BOLE", "district": "AIRPORT BRANCH ATM1", "locationType": "1", "locationTypeDesc": "Financial Institution"}, {"id": 3065, "documentId": "39c9f8ee-c640-4a1e-a892-f2508d6051ba", "lat": 8.98, "lon": 38.79, "terminalId": "ABL00024", "city": null, "telephone": null, "createdAt": null, "updatedAt": null, "publishedAt": "2025-11-01T09:06:06.958Z", "atmName": "Airport", "branch": "BOLE", "district": "DOMESTIC DEPATURE ATM", "locationType": "2", "locationTypeDesc": "Airport"}, {"id": 3066, "documentId": "d7e880ae-6d9f-4ae5-bbe8-24db0451b5f0", "lat": 8.98, "lon": 38.79, "terminalId": "ABL00029", "city": null, "telephone": null, "createdAt": null, "updatedAt": null, "publishedAt": "2025-11-01T09:06:06.961Z", "atmName": "Airport", "branch": "BOLE", "district": "AIRPORT MRO ATM", "locationType": "2", "locationTypeDesc": "Airport"}, {"id": 3067, "documentId": "9d1372fc-43ed-4979-a8ef-7c5f99b2facf", "lat": 8.98, "lon": 38.79, "terminalId": "ABL00027", "city": null, "telephone": null, "createdAt": null, "updatedAt": null, "publishedAt": "2025-11-01T09:06:06.963Z", "atmName": "Airport", "branch": "BOLE", "district": "AIRLINES HEAD OFFICE ATM2", "locationType": "11", "locationTypeDesc": "Office Building"}, {"id": 3068, "documentId": "5253b2f0-e8ee-40b8-9655-88a694754562", "lat": 8.98, "lon": 38.79, "terminalId": "ABL00025", "city": null, "telephone": null, "createdAt": null, "updatedAt": null, "publishedAt": "2025-11-01T09:06:06.965Z", "atmName": "Airport", "branch": "BOLE", "district": "AIRLINES CAFEE ATM", "locationType": "11", "locationTypeDesc": "Office Building"}, {"id": 3069, "documentId": "ae099065-cd45-4ab5-a27a-6118c446144d", "lat": 8.98, "lon": 38.8, "terminalId": "ABL00022", "city": null, "telephone": null, "createdAt": null, "updatedAt": null, "publishedAt": "2025-11-01T09:06:06.968Z", "atmName": "Airport", "branch": "BOLE", "district": "AIRPORT AIRVAL FOREX ATM1", "locationType": "2", "locationTypeDesc": "Airport"}, {"id": 3070, "documentId": "b24064c7-5083-4621-b49c-573997540d0e", "lat": 9.59, "lon": 41.86, "terminalId": "ADE00046", "city": null, "telephone": null, "createdAt": null, "updatedAt": null, "publishedAt": "2025-11-01T09:06:06.970Z", "atmName": "Ajbar", "branch": "DESSIE", "district": "AJBAR BRANCH ATM", "locationType": "1", "locationTypeDesc": "Financial Institution"}, {"id": 3071, "documentId": "039b5d3f-10d4-4f9f-8353-be988a120843", "lat": 8.87, "lon": 38.79, "terminalId": "ANS00042", "city": null, "telephone": null, "createdAt": null, "updatedAt": null, "publishedAt": "2025-11-01T09:06:06.973Z", "atmName": "Akaki", "branch": "NEFAS SILK", "district": "AKAKI ATM 1", "locationType": "1", "locationTypeDesc": "Financial Institution"}, {"id": 3072, "documentId": "8bdde46f-057b-425a-b0b9-0952db2cd06b", "lat": 8.88, "lon": 38.79, "terminalId": "ANS00048", "city": null, "telephone": null, "createdAt": null, "updatedAt": null, "publishedAt": "2025-11-01T09:06:06.975Z", "atmName": "Akaki", "branch": "NEFAS SILK", "district": "TIRUNESH BEJING HOSPITAL", "locationType": "6", "locationTypeDesc": "Hospital"}, {"id": 3073, "documentId": "bf7199f7-fed0-44a0-8e77-2964ec9d047a", "lat": 8.79, "lon": 38.91, "terminalId": "ANS00162", "city": null, "telephone": null, "createdAt": null, "updatedAt": null, "publishedAt": "2025-11-01T09:06:06.978Z", "atmName": "Akaki", "branch": "NEFAS SILK", "district": "Gelan Industry zone ATM 1", "locationType": "14", "locationTypeDesc": "other"}, {"id": 3074, "documentId": "70683ea1-b11f-4b5d-a340-f0e7dca5d602", "lat": 8.87, "lon": 38.79, "terminalId": "ANS00043", "city": null, "telephone": null, "createdAt": null, "updatedAt": null, "publishedAt": "2025-11-01T09:06:06.980Z", "atmName": "Akaki", "branch": "NEFAS SILK", "district": "AKAKI ATM2", "locationType": "1", "locationTypeDesc": "Financial Institution"}, {"id": 3075, "documentId": "f8033701-90b8-4bde-95a9-6a6d28c75c45", "lat": 8.87, "lon": 38.79, "terminalId": "ANS00044", "city": null, "telephone": null, "createdAt": null, "updatedAt": null, "publishedAt": "2025-11-01T09:06:06.982Z", "atmName": "Akaki", "branch": "NEFAS SILK", "district": "AKAKI ATM3", "locationType": "1", "locationTypeDesc": "Financial Institution"}, {"id": 3076, "documentId": "ae7461a6-a9cf-4cf1-a5c6-48cb9c749845", "lat": 8.87, "lon": 38.79, "terminalId": "ANS00045", "city": null, "telephone": null, "createdAt": null, "updatedAt": null, "publishedAt": "2025-11-01T09:06:06.985Z", "atmName": "Akaki", "branch": "NEFAS SILK", "district": "AKAKI ATM 4", "locationType": "1", "locationTypeDesc": "Financial Institution"}, {"id": 3077, "documentId": "3b9c1c20-3fc5-4190-ae6c-ee61b5d10bae", "lat": 8.87, "lon": 38.79, "terminalId": "ANS00046", "city": null, "telephone": null, "createdAt": null, "updatedAt": null, "publishedAt": "2025-11-01T09:06:06.987Z", "atmName": "Akaki", "branch": "NEFAS SILK", "district": "AKAKI ATM 5", "locationType": "1", "locationTypeDesc": "Financial Institution"}, {"id": 3078, "documentId": "6ca6f352-f5fc-4b50-9dfd-1bf53f549cf4", "lat": 8.87, "lon": 38.79, "terminalId": "ANS00047", "city": null, "telephone": null, "createdAt": null, "updatedAt": null, "publishedAt": "2025-11-01T09:06:06.989Z", "atmName": "Akaki", "branch": "NEFAS SILK", "district": "AKAKI ATM 6", "locationType": "1", "locationTypeDesc": "Financial Institution"}, {"id": 3079, "documentId": "e918b2fc-87a2-4553-b2b1-d2b89681408f", "lat": 8.87, "lon": 38.79, "terminalId": "ANS00049", "city": null, "telephone": null, "createdAt": null, "updatedAt": null, "publishedAt": "2025-11-01T09:06:06.992Z", "atmName": "AKAKI GEBEYA", "branch": "NEFAS SILK", "district": "AKAKI GEBEYA ATM 1", "locationType": "1", "locationTypeDesc": "Financial Institution"}, {"id": 3080, "documentId": "65534421-b205-4027-b0ab-172639df27ca", "lat": 8.85, "lon": 38.81, "terminalId": "ANS00101", "city": null, "telephone": null, "createdAt": null, "updatedAt": null, "publishedAt": "2025-11-01T09:06:06.995Z", "atmName": "AKAKI KELA", "branch": "NEFAS SILK", "district": "AKAKI KELA BRANCH ATM1", "locationType": "1", "locationTypeDesc": "Financial Institution"}, {"id": 3081, "documentId": "9718f338-7e1b-464c-b108-ea45e4eacd65", "lat": 9.79, "lon": 37.42, "terminalId": "AAM00071", "city": null, "telephone": null, "createdAt": null, "updatedAt": null, "publishedAt": "2025-11-01T09:06:06.997Z", "atmName": "AKAKO", "branch": "AMBO", "district": "AKAKO ATM1", "locationType": "1", "locationTypeDesc": "Financial Institution"}, {"id": 3082, "documentId": "b744233b-bac7-4658-b481-b76ab2244c9d", "lat": 10.79, "lon": 39.74, "terminalId": "ADE00073", "city": null, "telephone": null, "createdAt": null, "updatedAt": null, "publishedAt": "2025-11-01T09:06:06.999Z", "atmName": "AKESTA", "branch": "DESSIE", "district": "AKESTA BRANCH ATM1", "locationType": "1", "locationTypeDesc": "Financial Institution"}, {"id": 3083, "documentId": "7bfca380-4535-41fa-a32a-1ad99b2bf833", "lat": 7.67, "lon": 36.83, "terminalId": "AJM00145", "city": null, "telephone": null, "createdAt": null, "updatedAt": null, "publishedAt": "2025-11-01T09:06:07.002Z", "atmName": "AL AMANA", "branch": "JIMMA", "district": "AL AMANA BRANCH ATM 1", "locationType": "1", "locationTypeDesc": "Financial Institution"}, {"id": 3084, "documentId": "2d1b32b3-fd0d-48ff-929a-a0da76486994", "lat": 10.72, "lon": 39.87, "terminalId": "ADB00059", "city": null, "telephone": null, "createdAt": null, "updatedAt": null, "publishedAt": "2025-11-01T09:06:07.004Z", "atmName": "ALAMIN", "branch": "DEBRE BERHAN", "district": "ALAMIN BRANCH ATM 01", "locationType": "1", "locationTypeDesc": "Financial Institution"}, {"id": 3085, "documentId": "402f77e3-3148-4f2e-b675-a31826a45939", "lat": 7.54, "lon": 37.85, "terminalId": "AHW00111", "city": null, "telephone": null, "createdAt": null, "updatedAt": null, "publishedAt": "2025-11-01T09:06:07.006Z", "atmName": "Alamura", "branch": "HAWASSA", "district": "ALAMURA BRANCH ATM 2", "locationType": "1", "locationTypeDesc": "Financial Institution"}, {"id": 3086, "documentId": "ffd0afdf-a633-4349-b637-f59d0cbc300b", "lat": 7.52, "lon": 37.76, "terminalId": "AHW00177", "city": null, "telephone": null, "createdAt": null, "updatedAt": null, "publishedAt": "2025-11-01T09:06:07.009Z", "atmName": "Alamura", "branch": "HAWASSA", "district": "ALAMURA BRANCH ATM 1", "locationType": "1", "locationTypeDesc": "Financial Institution"}, {"id": 3087, "documentId": "64a75b25-1cf9-4713-a686-cb642e867922", "lat": 7.67, "lon": 36.84, "terminalId": "AJM00144", "city": null, "telephone": null, "createdAt": null, "updatedAt": null, "publishedAt": "2025-11-01T09:06:07.012Z", "atmName": "ALBEREKA", "branch": "JIMMA", "district": "AL BERKA BRANCH ATM 1", "locationType": "1", "locationTypeDesc": "Financial Institution"}, {"id": 3088, "documentId": "fbd6bb85-4021-4a67-8c20-3883c6610fb3", "lat": 7.19, "lon": 38.59, "terminalId": "ASH00179", "city": null, "telephone": null, "createdAt": null, "updatedAt": null, "publishedAt": "2025-11-01T09:06:07.014Z", "atmName": "ALECHE", "branch": "SHASHEMENE", "district": "ALECHE BRANCH ATM 1", "locationType": "1", "locationTypeDesc": "Financial Institution"}, {"id": 3089, "documentId": "e83ebf19-5e74-4228-bdc2-b5fd32009397", "lat": 9.2, "lon": 39.15, "terminalId": "AYK00067", "city": null, "telephone": null, "createdAt": null, "updatedAt": null, "publishedAt": "2025-11-01T09:06:07.017Z", "atmName": "Aleletu", "branch": "YEKA", "district": "ALELTU BRANCH ATM1", "locationType": "1", "locationTypeDesc": "Financial Institution"}, {"id": 4899, "documentId": "39064ec9-5400-44c9-bb4c-362311a3ba4f", "lat": 7.21, "lon": 38.62, "terminalId": "ASH00134", "city": null, "telephone": null, "createdAt": null, "updatedAt": null, "publishedAt": "2025-11-01T09:12:40.087Z", "atmName": "Melkaoda", "branch": "SHASHEMENE", "district": "MELKA ODA BRANCH ATM 1", "locationType": "1", "locationTypeDesc": "Financial Institution"}, {"id": 3091, "documentId": "50cf6401-b185-4164-9391-b51d8f403ee5", "lat": 9.02, "lon": 38.75, "terminalId": "AAR00030", "city": null, "telephone": null, "createdAt": null, "updatedAt": null, "publishedAt": "2025-11-01T09:06:07.056Z", "atmName": "Addis Ababa", "branch": "ARADA", "district": "ADDIS ABABA BRANCH FOREX ATM", "locationType": "1", "locationTypeDesc": "Financial Institution"}, {"id": 3092, "documentId": "5ba85dd2-2d21-4039-92ed-b8cfe16916ce", "lat": 9.02, "lon": 38.75, "terminalId": "AAR00047", "city": null, "telephone": null, "createdAt": null, "updatedAt": null, "publishedAt": "2025-11-01T09:06:07.058Z", "atmName": "Addis Ababa", "branch": "ARADA", "district": "AMBASSADOR CINEMA ATM", "locationType": "14", "locationTypeDesc": "Other"}, {"id": 3093, "documentId": "6b3caf03-3cdd-4f02-b3ad-8cbd0785b735", "lat": 9.02, "lon": 38.75, "terminalId": "AAR00052", "city": null, "telephone": null, "createdAt": null, "updatedAt": null, "publishedAt": "2025-11-01T09:06:07.060Z", "atmName": "Addis Ababa", "branch": "ARADA", "district": "TIKUR ANBESSA HOSPITAL ATM", "locationType": "6", "locationTypeDesc": "Hospital"}, {"id": 3094, "documentId": "a76ac2c4-a8ba-489f-8e53-19e2105ecce1", "lat": 9, "lon": 38.68, "terminalId": "AKF00012", "city": null, "telephone": null, "createdAt": null, "updatedAt": null, "publishedAt": "2025-11-01T09:07:17.748Z", "atmName": "Alem Bank", "branch": "KOLFE", "district": "ALEM BANK BRANCH ATM2", "locationType": "1", "locationTypeDesc": "Financial Institution"}, {"id": 3095, "documentId": "2cf04172-102d-43f2-968d-461f5ea00e5f", "lat": 7.07, "lon": 38.5, "terminalId": "AGD00171", "city": null, "telephone": null, "createdAt": null, "updatedAt": null, "publishedAt": "2025-11-01T09:07:17.752Z", "atmName": "ALEM BER", "branch": "GONDAR", "district": "ALEMBER BRANCH ATM", "locationType": "1", "locationTypeDesc": "Financial Institution"}, {"id": 3096, "documentId": "d21b163a-0b39-414b-a90f-e02c15c57cb2", "lat": 8.93, "lon": 38.66, "terminalId": "AKF00025", "city": null, "telephone": null, "createdAt": null, "updatedAt": null, "publishedAt": "2025-11-01T09:07:17.754Z", "atmName": "Alem Gena", "branch": "KOLFE", "district": "ALEM GENA BRANCH ATM 1", "locationType": "1", "locationTypeDesc": "Financial Institution"}, {"id": 3097, "documentId": "24b687c9-c682-4da8-ae4d-0c17380a3ca8", "lat": 8.93, "lon": 38.66, "terminalId": "AKF00026", "city": null, "telephone": null, "createdAt": null, "updatedAt": null, "publishedAt": "2025-11-01T09:07:17.757Z", "atmName": "Alem Gena", "branch": "KOLFE", "district": "ALEM GENA BRANCH ATM 02", "locationType": "1", "locationTypeDesc": "Financial Institution"}, {"id": 3098, "documentId": "29b9769a-e6cc-4525-bb9e-08764179f747", "lat": 10.06, "lon": 38.99, "terminalId": "ADB00029", "city": null, "telephone": null, "createdAt": null, "updatedAt": null, "publishedAt": "2025-11-01T09:07:17.760Z", "atmName": "Alem Ketema", "branch": "DEBRE BERHAN", "district": "ALEM KETEMA BRANCH ATM 2", "locationType": "1", "locationTypeDesc": "Financial Institution"}, {"id": 3099, "documentId": "da9b1022-693b-4735-9f1b-0b87ec7eb69c", "lat": 10.06, "lon": 38.99, "terminalId": "ADB00028", "city": null, "telephone": null, "createdAt": null, "updatedAt": null, "publishedAt": "2025-11-01T09:07:17.763Z", "atmName": "Alem Ketema", "branch": "DEBRE BERHAN", "district": "ALEM KETEMA BRANCH ATM 1", "locationType": "1", "locationTypeDesc": "Financial Institution"}, {"id": 3100, "documentId": "e0e932ee-04be-443c-aeb3-eedca244f0a7", "lat": 8.3, "lon": 38.95, "terminalId": "AAD00145", "city": null, "telephone": null, "createdAt": null, "updatedAt": null, "publishedAt": "2025-11-01T09:07:17.767Z", "atmName": "Alemtena", "branch": "ADAMA", "district": "ALEMTENA BRANCH ATM2", "locationType": "1", "locationTypeDesc": "Financial Institution"}, {"id": 3101, "documentId": "6ec6351a-2431-4211-8261-cd7a633767c5", "lat": 8.3, "lon": 38.95, "terminalId": "AAD00144", "city": null, "telephone": null, "createdAt": null, "updatedAt": null, "publishedAt": "2025-11-01T09:07:17.770Z", "atmName": "Alemtena", "branch": "ADAMA", "district": "ALEMTENA BRANCH ATM1", "locationType": "1", "locationTypeDesc": "Financial Institution"}, {"id": 3102, "documentId": "850d8825-f800-4b85-b0b4-d4fb070eb577", "lat": 8.98, "lon": 38.7, "terminalId": "AKF00027", "city": null, "telephone": null, "createdAt": null, "updatedAt": null, "publishedAt": "2025-11-01T09:07:17.773Z", "atmName": "Alemu Abera", "branch": "KOLFE", "district": "ALEMU ABERA BRANCH ATM 1", "locationType": "1", "locationTypeDesc": "Financial Institution"}, {"id": 3103, "documentId": "9f91d23e-d17d-4cd9-8c94-7cfac67ad798", "lat": 6.58, "lon": 38.33, "terminalId": "ADL00001", "city": null, "telephone": null, "createdAt": null, "updatedAt": null, "publishedAt": "2025-11-01T09:07:17.775Z", "atmName": "Aleta Chuko", "branch": "DILLA", "district": "ALETA CHUKO BRANCH ATM 1", "locationType": "1", "locationTypeDesc": "Financial Institution"}, {"id": 3104, "documentId": "15131eec-406f-4d41-877e-e80551eb36a1", "lat": 6.58, "lon": 38.33, "terminalId": "ADL00054", "city": null, "telephone": null, "createdAt": null, "updatedAt": null, "publishedAt": "2025-11-01T09:07:17.778Z", "atmName": "ALETA CHUKO", "branch": "DILLA", "district": "ALETA CHUKO BRANCH ATM 2", "locationType": "1", "locationTypeDesc": "Financial Institution"}, {"id": 3105, "documentId": "5dea8a87-be6d-45d0-bbef-1bf8a83f9f0e", "lat": 7.54, "lon": 37.84, "terminalId": "AHW00168", "city": null, "telephone": null, "createdAt": null, "updatedAt": null, "publishedAt": "2025-11-01T09:07:17.780Z", "atmName": "Aleta Wondo", "branch": "HAWASSA", "district": "ALETA WONDO BRANCH ATM 2", "locationType": "1", "locationTypeDesc": "Financial Institution"}, {"id": 3106, "documentId": "47cd56f2-ace6-47ec-b719-76c5f77013e8", "lat": 8.99, "lon": 38.83, "terminalId": "AMG00079", "city": null, "telephone": null, "createdAt": null, "updatedAt": null, "publishedAt": "2025-11-01T09:07:17.783Z", "atmName": "ALFURAT", "branch": "MEGENAGNA", "district": "ALFURAT BRANCH ATM2", "locationType": "1", "locationTypeDesc": "Financial Institution"}, {"id": 3107, "documentId": "a73a3780-eb78-468c-ab64-3719308dda01", "lat": 8.99, "lon": 38.83, "terminalId": "AMG00078", "city": null, "telephone": null, "createdAt": null, "updatedAt": null, "publishedAt": "2025-11-01T09:07:17.786Z", "atmName": "ALFURAT", "branch": "MEGENAGNA", "district": "ALFURAT BRANCH ATM1", "locationType": "1", "locationTypeDesc": "Financial Institution"}, {"id": 3108, "documentId": "24f55904-45d6-4402-b10e-adcdba9af48a", "lat": 8.58, "lon": 37.11, "terminalId": "AJM00086", "city": null, "telephone": null, "createdAt": null, "updatedAt": null, "publishedAt": "2025-11-01T09:07:17.790Z", "atmName": "Alga", "branch": "JIMMA", "district": "ALGA BRANCH ATM 1", "locationType": "1", "locationTypeDesc": "Financial Institution"}, {"id": 3109, "documentId": "df5dbc0e-4d48-4113-9640-ca1b44c7d29f", "lat": 7.86, "lon": 35.17, "terminalId": "AMT00021", "city": null, "telephone": null, "createdAt": null, "updatedAt": null, "publishedAt": "2025-11-01T09:07:17.792Z", "atmName": "Alge Sachi", "branch": "METTU", "district": "ALGESACHI BRANCH ATM 1", "locationType": "1", "locationTypeDesc": "Financial Institution"}, {"id": 3110, "documentId": "7c754465-9cd2-42a5-a85a-6762e7a02d5c", "lat": 8.99, "lon": 38.81, "terminalId": "AKF00112", "city": null, "telephone": null, "createdAt": null, "updatedAt": null, "publishedAt": "2025-11-01T09:07:17.795Z", "atmName": "AL HEYIRAT", "branch": "KOLFE", "district": "ALHARIYAT BRANCH ATM", "locationType": "1", "locationTypeDesc": "Financial Institution"}, {"id": 3111, "documentId": "a5d7ef75-e7c2-46e4-ad70-20550e54f9d8", "lat": 11.66, "lon": 39.66, "terminalId": "AWL00081", "city": null, "telephone": null, "createdAt": null, "updatedAt": null, "publishedAt": "2025-11-01T09:07:17.797Z", "atmName": "ALHIJRA", "branch": "WOLDIA", "district": "ALHIJIRA BRANCH ATM 01", "locationType": "1", "locationTypeDesc": "Financial Institution"}, {"id": 3112, "documentId": "ee41fb4e-67ed-49c1-afb9-8603c07ffb13", "lat": 8.55, "lon": 34.83, "terminalId": "AMT00022", "city": null, "telephone": null, "createdAt": null, "updatedAt": null, "publishedAt": "2025-11-01T09:07:17.800Z", "atmName": "AL-HILAL", "branch": "METTU", "district": "ALHILAL BRANCH ATM 1", "locationType": "1", "locationTypeDesc": "Financial Institution"}, {"id": 3113, "documentId": "1ecc4ae3-1b77-4244-bb2a-f0e5564c5e39", "lat": 8.99, "lon": 38.79, "terminalId": "ABR00008", "city": null, "telephone": null, "createdAt": null, "updatedAt": null, "publishedAt": "2025-11-01T09:07:17.802Z", "atmName": "Ali", "branch": "BALE ROBE", "district": "ALI BRANCH ATM 1", "locationType": "1", "locationTypeDesc": "Financial Institution"}, {"id": 3114, "documentId": "503f1437-b96c-48e1-8e7c-8d224b43d9b5", "lat": 9.89, "lon": 37.08, "terminalId": "AAM00054", "city": null, "telephone": null, "createdAt": null, "updatedAt": null, "publishedAt": "2025-11-01T09:07:17.804Z", "atmName": "Alibo", "branch": "AMBO", "district": "ALIBO ATM 1", "locationType": "1", "locationTypeDesc": "Financial Institution"}, {"id": 3115, "documentId": "56d5081f-6b9b-41a5-b064-fd1f0296f8e5", "lat": 8.01, "lon": 38.21, "terminalId": "AHS00003", "city": null, "telephone": null, "createdAt": null, "updatedAt": null, "publishedAt": "2025-11-01T09:07:17.807Z", "atmName": "Alicho Weriro", "branch": "HOSSANA", "district": "ALICHO WURIRO BRANCH ATM", "locationType": "1", "locationTypeDesc": "Financial Institution"}, {"id": 3116, "documentId": "5b8dcaa2-1506-4cef-913c-2e6019dbddb2", "lat": 9.03, "lon": 38.66, "terminalId": "AKF00022", "city": null, "telephone": null, "createdAt": null, "updatedAt": null, "publishedAt": "2025-11-01T09:07:17.810Z", "atmName": "ALIF", "branch": "KOLFE", "district": "ALIF  BRANCH ATM 1", "locationType": "1", "locationTypeDesc": "Financial Institution"}, {"id": 3117, "documentId": "69f93700-d898-4a67-a91c-f48c4ed403d4", "lat": 7.19, "lon": 38.59, "terminalId": "ASH00189", "city": null, "telephone": null, "createdAt": null, "updatedAt": null, "publishedAt": "2025-11-01T09:07:17.813Z", "atmName": "Al Iman", "branch": "SHASHEMENE", "district": "Al Iman BRANCH ATM 1", "locationType": "1", "locationTypeDesc": "Financial Institution"}, {"id": 3118, "documentId": "d02ed749-39ff-4e0c-a677-bf57fc7a2dda", "lat": 7.92, "lon": 38.24, "terminalId": "AHS00004", "city": null, "telephone": null, "createdAt": null, "updatedAt": null, "publishedAt": "2025-11-01T09:07:17.815Z", "atmName": "ALKESO", "branch": "HOSSANA", "district": "ALKESO BRANCH ATM 1", "locationType": "1", "locationTypeDesc": "Financial Institution"}, {"id": 3119, "documentId": "bd7ef857-ee31-4b0b-bace-0ebad3774364", "lat": 7.14, "lon": 40.71, "terminalId": "ABR00065", "city": null, "telephone": null, "createdAt": null, "updatedAt": null, "publishedAt": "2025-11-01T09:07:17.817Z", "atmName": "AL MANAR", "branch": "BALE ROBE", "district": "Al MENAR BRANCH ATM 1", "locationType": "1", "locationTypeDesc": "Financial Institution"}, {"id": 3120, "documentId": "ecd6f9e4-c9de-4a6f-9967-e0b42d2059b7", "lat": 9.02, "lon": 38.74, "terminalId": "AKR00136", "city": null, "telephone": null, "createdAt": null, "updatedAt": null, "publishedAt": "2025-11-01T09:07:17.820Z", "atmName": "AL-MEDINA", "branch": "KIRKOS", "district": "AL MEDINA BRANCH ATM1", "locationType": "1", "locationTypeDesc": "Financial Institution"}, {"id": 3121, "documentId": "11c97f71-dac6-4cd9-bc22-d9f728012441", "lat": 8.99, "lon": 38.78, "terminalId": "ABR00007", "city": null, "telephone": null, "createdAt": null, "updatedAt": null, "publishedAt": "2025-11-01T09:07:17.822Z", "atmName": "AL NUR", "branch": "BALE ROBE", "district": "AL NUR BRANCH ATM 1", "locationType": "1", "locationTypeDesc": "Financial Institution"}, {"id": 3122, "documentId": "2c5fed0b-870b-4282-9f38-c87dd14d3068", "lat": 9.5, "lon": 35.53, "terminalId": "AMT00072", "city": null, "telephone": null, "createdAt": null, "updatedAt": null, "publishedAt": "2025-11-01T09:07:17.825Z", "atmName": "AL-RAYYAN", "branch": "METTU", "district": "AL REYYAN branch ATM", "locationType": "1", "locationTypeDesc": "Financial Institution"}, {"id": 3123, "documentId": "1db70382-1a74-4456-bdbd-2c695bc54037", "lat": 11.32, "lon": 39.61, "terminalId": "ADE00198", "city": null, "telephone": null, "createdAt": null, "updatedAt": null, "publishedAt": "2025-11-01T09:07:17.827Z", "atmName": "Alwohda", "branch": "DESSIE", "district": "ALWOHDA BRANCH ATM 1", "locationType": "1", "locationTypeDesc": "Financial Institution"}, {"id": 3124, "documentId": "7786337e-3742-46fe-95dc-2ccf72a8d03e", "lat": 6.95, "lon": 35.55, "terminalId": "AJM00121", "city": null, "telephone": null, "createdAt": null, "updatedAt": null, "publishedAt": "2025-11-01T09:07:17.831Z", "atmName": "Aman", "branch": "JIMMA", "district": "AMAN HEALTH SCIENCE COLLEGE ATM", "locationType": "17", "locationTypeDesc": "University"}, {"id": 3125, "documentId": "6645a85f-8bb8-49bb-b14e-1d496eb13a19", "lat": 6.96, "lon": 35.55, "terminalId": "AJM00120", "city": null, "telephone": null, "createdAt": null, "updatedAt": null, "publishedAt": "2025-11-01T09:07:17.833Z", "atmName": "Aman", "branch": "JIMMA", "district": "AMAN BRANCH ATM 2", "locationType": "1", "locationTypeDesc": "Financial Institution"}, {"id": 3126, "documentId": "d1ce3967-10bf-4c4a-8656-8bdf5531c9ef", "lat": 6.96, "lon": 35.56, "terminalId": "AJM00055", "city": null, "telephone": null, "createdAt": null, "updatedAt": null, "publishedAt": "2025-11-01T09:07:17.836Z", "atmName": "Aman", "branch": "JIMMA", "district": "AMAN BRANCH ATM 1", "locationType": "1", "locationTypeDesc": "Financial Institution"}, {"id": 3127, "documentId": "8c4b273c-e972-4b84-af3b-cbf2f2d11b90", "lat": 9.01, "lon": 38.72, "terminalId": "AKF00028", "city": null, "telephone": null, "createdAt": null, "updatedAt": null, "publishedAt": "2025-11-01T09:07:17.838Z", "atmName": "AMANAH", "branch": "KOLFE", "district": "AMANAH BRANCH ATM", "locationType": "1", "locationTypeDesc": "Financial Institution"}, {"id": 3128, "documentId": "47f1dd8f-9da8-48de-aac9-772c240ab185", "lat": 4.06, "lon": 38.32, "terminalId": "ADM00027", "city": null, "telephone": null, "createdAt": null, "updatedAt": null, "publishedAt": "2025-11-01T09:07:17.841Z", "atmName": "Amanueal", "branch": "Debre Markos", "district": "AMANUEL BRANCH ATM 1", "locationType": "1", "locationTypeDesc": "Financial Institution"}, {"id": 3129, "documentId": "5778d82e-33e2-4eca-908a-b4d13997f305", "lat": 5.83, "lon": 37.9, "terminalId": "ADL00037", "city": null, "telephone": null, "createdAt": null, "updatedAt": null, "publishedAt": "2025-11-01T09:07:17.843Z", "atmName": "Amaro Kele", "branch": "DILLA", "district": "AMARO KELLE BRANCH ATM 1", "locationType": "1", "locationTypeDesc": "Financial Institution"}, {"id": 3130, "documentId": "0916c1c7-969e-47ba-b315-e04cd5820a98", "lat": 7.05, "lon": 38.47, "terminalId": "AGD00163", "city": null, "telephone": null, "createdAt": null, "updatedAt": null, "publishedAt": "2025-11-01T09:07:17.846Z", "atmName": "Amba Giorgis", "branch": "GONDAR", "district": "AMBA GIORGIS BRANCH ATM 2", "locationType": "1", "locationTypeDesc": "Financial Institution"}, {"id": 3131, "documentId": "c79ef735-5336-4e32-8662-c4895b79c41a", "lat": 6.6, "lon": 38.42, "terminalId": "AGD00053", "city": null, "telephone": null, "createdAt": null, "updatedAt": null, "publishedAt": "2025-11-01T09:07:17.848Z", "atmName": "Amba Giorgis", "branch": "GONDAR", "district": "AMBA GIORGIS BRANCH ATM", "locationType": "1", "locationTypeDesc": "Financial Institution"}, {"id": 3132, "documentId": "7bd05f85-5787-4a13-a911-c48ca7a454fe", "lat": 7.07, "lon": 38.5, "terminalId": "AGD00147", "city": null, "telephone": null, "createdAt": null, "updatedAt": null, "publishedAt": "2025-11-01T09:07:17.851Z", "atmName": "AMBARAS", "branch": "GONDAR", "district": "AMBARAS BRANCH ATM", "locationType": "1", "locationTypeDesc": "Financial Institution"}, {"id": 3133, "documentId": "fb069eef-e8c6-495d-a362-b01185ce0037", "lat": 5.83, "lon": 37.9, "terminalId": "ADM00018", "city": null, "telephone": null, "createdAt": null, "updatedAt": null, "publishedAt": "2025-11-01T09:07:17.854Z", "atmName": "Amber", "branch": "Debre Markos", "district": "Amber branch ATM 1", "locationType": "1", "locationTypeDesc": "Financial Institution"}, {"id": 3134, "documentId": "c240ef8d-e430-4a62-886d-c4f6b6dd8ffb", "lat": 7.56, "lon": 37.89, "terminalId": "AHS00005", "city": null, "telephone": null, "createdAt": null, "updatedAt": null, "publishedAt": "2025-11-01T09:07:17.856Z", "atmName": "AMBICHGODE", "branch": "HOSSANA", "district": "AMBICHO GODE BRANCH ATM 1", "locationType": "1", "locationTypeDesc": "Financial Institution"}, {"id": 3135, "documentId": "7c0f9cf3-17c8-4051-945e-4457db0f361b", "lat": 8.97, "lon": 37.89, "terminalId": "AAM00001", "city": null, "telephone": null, "createdAt": null, "updatedAt": null, "publishedAt": "2025-11-01T09:07:17.859Z", "atmName": "Ambo", "branch": "AMBO", "district": "AMBO UNIVERSITY HACHALU CAMPUS ATM", "locationType": "17", "locationTypeDesc": "University"}, {"id": 3136, "documentId": "f6d53a49-a002-49f5-909b-82778a1c92c2", "lat": 8.98, "lon": 37.85, "terminalId": "AAM00006", "city": null, "telephone": null, "createdAt": null, "updatedAt": null, "publishedAt": "2025-11-01T09:07:17.861Z", "atmName": "Ambo", "branch": "AMBO", "district": "AMBO BRANCH ATM 6", "locationType": "1", "locationTypeDesc": "Financial Institution"}, {"id": 3137, "documentId": "31cf7be9-b1f2-4756-914f-97855aaec2ab", "lat": 9.03, "lon": 37.74, "terminalId": "AAM00005", "city": null, "telephone": null, "createdAt": null, "updatedAt": null, "publishedAt": "2025-11-01T09:07:17.864Z", "atmName": "Ambo", "branch": "AMBO", "district": "MINISTRY OF DEFENCE AMBO M BASE ATM", "locationType": "10", "locationTypeDesc": "Military Base"}, {"id": 3138, "documentId": "31044792-4aa8-4f99-a465-23ec2d80df3a", "lat": 8.98, "lon": 37.85, "terminalId": "AAM00003", "city": null, "telephone": null, "createdAt": null, "updatedAt": null, "publishedAt": "2025-11-01T09:07:17.867Z", "atmName": "Ambo", "branch": "AMBO", "district": "AMBO BRANCH ATM 3", "locationType": "1", "locationTypeDesc": "Financial Institution"}, {"id": 3139, "documentId": "9e65b969-7f5e-4354-8f16-ee2cb1bf7df0", "lat": 8.98, "lon": 37.85, "terminalId": "AAM00004", "city": null, "telephone": null, "createdAt": null, "updatedAt": null, "publishedAt": "2025-11-01T09:07:17.869Z", "atmName": "Ambo", "branch": "AMBO", "district": "AMBO BRANCH ATM 4", "locationType": "1", "locationTypeDesc": "Financial Institution"}, {"id": 3140, "documentId": "54c73011-6ed0-42ba-b4f4-7382aa00b2fe", "lat": 8.98, "lon": 37.85, "terminalId": "AAM00002", "city": null, "telephone": null, "createdAt": null, "updatedAt": null, "publishedAt": "2025-11-01T09:07:17.872Z", "atmName": "Ambo", "branch": "AMBO", "district": "AMBO BRANCH ATM 1", "locationType": "1", "locationTypeDesc": "Financial Institution"}, {"id": 3141, "documentId": "01f5e35d-baf1-4b0c-be95-41a2627da415", "lat": 8.98, "lon": 37.85, "terminalId": "AAM00091", "city": null, "telephone": null, "createdAt": null, "updatedAt": null, "publishedAt": "2025-11-01T09:07:17.875Z", "atmName": "AMBO", "branch": "AMBO", "district": "Ambo Branch ATM7", "locationType": "1", "locationTypeDesc": "Financial Institution"}, {"id": 3142, "documentId": "37d7f31b-1302-4ed3-a5eb-5ec8c0c19bec", "lat": 7.98, "lon": 36.9, "terminalId": "AJM00082", "city": null, "telephone": null, "createdAt": null, "updatedAt": null, "publishedAt": "2025-11-01T09:07:17.877Z", "atmName": "Ambuye", "branch": "JIMMA", "district": "AMBUYE BRANCH ATM 1", "locationType": "1", "locationTypeDesc": "Financial Institution"}, {"id": 3143, "documentId": "ac224c61-fbd3-4d61-958f-ffa8f47337ed", "lat": 7.8, "lon": 37.8, "terminalId": "AHS00006", "city": null, "telephone": null, "createdAt": null, "updatedAt": null, "publishedAt": "2025-11-01T09:07:17.880Z", "atmName": "AMEKA", "branch": "HOSSANA", "district": "AMEKA BRANCH ATM 1", "locationType": "1", "locationTypeDesc": "Financial Institution"}, {"id": 3144, "documentId": "dd743014-71d0-46c4-83b9-fcb58e09f5d4", "lat": 7.11, "lon": 36.67, "terminalId": "AJM00075", "city": null, "telephone": null, "createdAt": null, "updatedAt": null, "publishedAt": "2025-11-01T09:07:17.882Z", "atmName": "Ameya", "branch": "JIMMA", "district": "AMEYA BRANCH ATM 1", "locationType": "1", "locationTypeDesc": "Financial Institution"}, {"id": 3145, "documentId": "3d355527-d841-489d-833a-333a4b799e16", "lat": 6.58, "lon": 35.55, "terminalId": "AJM00167", "city": null, "telephone": null, "createdAt": null, "updatedAt": null, "publishedAt": "2025-11-01T09:07:17.884Z", "atmName": "Ameya", "branch": "JIMMA", "district": "KOYISHA HYDRO ELECTRIC POWER ATM", "locationType": "14", "locationTypeDesc": "other"}, {"id": 3146, "documentId": "0f4cb16d-e9fc-4938-84ed-67d830e8710a", "lat": 11.16, "lon": 39.93, "terminalId": "ADE00232", "city": null, "telephone": null, "createdAt": null, "updatedAt": null, "publishedAt": "2025-11-01T09:07:17.887Z", "atmName": "AMIN", "branch": "DESSIE", "district": "AMIN BRANCH ATM", "locationType": "1", "locationTypeDesc": "Financial Institution"}, {"id": 3147, "documentId": "3ad30261-418d-42b4-b53e-8fa3fd3a3c73", "lat": 9.04, "lon": 38.76, "terminalId": "AYK00110", "city": null, "telephone": null, "createdAt": null, "updatedAt": null, "publishedAt": "2025-11-01T09:07:17.889Z", "atmName": "AMIST KILO", "branch": "YEKA", "district": "AMIST KILLO BRANCH ATM 1", "locationType": "1", "locationTypeDesc": "Financial Institution"}, {"id": 3148, "documentId": "f0e36052-aee3-4ec1-8c26-6a35fcb7dda6", "lat": 6.87, "lon": 38.45, "terminalId": "AGD00174", "city": null, "telephone": null, "createdAt": null, "updatedAt": null, "publishedAt": "2025-11-01T09:07:17.893Z", "atmName": "AMSITEYA", "branch": "GONDAR", "district": "Amsiteya Branch ATM", "locationType": "1", "locationTypeDesc": "Financial Institution"}, {"id": 3149, "documentId": "0b695ac5-07f3-4af6-b475-bd005f0a4504", "lat": 9.99, "lon": 37.03, "terminalId": "AAM00055", "city": null, "telephone": null, "createdAt": null, "updatedAt": null, "publishedAt": "2025-11-01T09:07:17.895Z", "atmName": "Amuru", "branch": "AMBO", "district": "AMURU ATM1", "locationType": "1", "locationTypeDesc": "Financial Institution"}, {"id": 3150, "documentId": "ad39b0f7-d1ff-4eae-954e-8bc939a2863c", "lat": 11.71, "lon": 37.63, "terminalId": "ABD00227", "city": null, "telephone": null, "createdAt": null, "updatedAt": null, "publishedAt": "2025-11-01T09:07:17.898Z", "atmName": "Anbessamie", "branch": "BAHIR DAR", "district": "ANBESAMIE ATM1", "locationType": "1", "locationTypeDesc": "Financial Institution"}, {"id": 3151, "documentId": "00e0599f-f812-4507-b132-4b88d864152a", "lat": 8.75, "lon": 40.19, "terminalId": "ADD00172", "city": null, "telephone": null, "createdAt": null, "updatedAt": null, "publishedAt": "2025-11-01T09:07:17.900Z", "atmName": "ANCHAR", "branch": "DIRE DAWA", "district": "ANCHAR BRANCH ATM 1", "locationType": "1", "locationTypeDesc": "Financial Institution"}, {"id": 3152, "documentId": "0970889b-372a-4fdc-b12a-b9dad3dc2a6f", "lat": 11.4, "lon": 37.88, "terminalId": "ABD00229", "city": null, "telephone": null, "createdAt": null, "updatedAt": null, "publishedAt": "2025-11-01T09:07:17.902Z", "atmName": "Andabit", "branch": "BAHIR DAR", "district": "ANDABET ATM1", "locationType": "1", "locationTypeDesc": "Financial Institution"}, {"id": 3153, "documentId": "55480374-2cdd-4dfe-8981-18f2d5993a55", "lat": 9.02, "lon": 38.76, "terminalId": "ABL00034", "city": null, "telephone": null, "createdAt": null, "updatedAt": null, "publishedAt": "2025-11-01T09:07:17.905Z", "atmName": "Andinet", "branch": "BOLE", "district": "HILTON HOTEL FOREX ATM1", "locationType": "19", "locationTypeDesc": "Hotel"},