[
  {
    "location_type": "tele",
    "file": "geojson/tele.geojson",
    "features": 1860,
    "active": 1786,
    "minlon": 33.682118,
    "minlat": 3.546141,
    "maxlon": 47.017034,
    "maxlat": 14.687447,
    "bytes": 1082017,
    "sha256": "5283fcb6415a7439a982200cefb9574dafd2f8d0f3920bcaa0cfd64473d5e173",
    "source_url": "https://id.gov.et/api/proxy/get/locations",
    "harvested": "2026-06-05",
    "status": "ok"
  },
  {
    "location_type": "mor",
    "file": "geojson/mor.geojson",
    "features": 134,
    "active": 0,
    "minlon": 34.543,
    "minlat": 3.536,
    "maxlon": 44.252,
    "maxlat": 14.277479,
    "bytes": 71251,
    "sha256": "51a7095df6c568eea76e7e60716195df37c85dbed4adcf6ea725ec7bc7645f24",
    "source_url": "https://id.gov.et/api/proxy/get/locations",
    "harvested": "2026-06-05",
    "status": "ok"
  },
  {
    "location_type": "crrsa",
    "file": "geojson/crrsa.geojson",
    "features": 107,
    "active": 0,
    "minlon": 38.674509,
    "minlat": 8.865848,
    "maxlon": 38.887271,
    "maxlat": 9.087418,
    "bytes": 57844,
    "sha256": "0fd510992546ce8bf5ac6113d13d8edf1a526d23f91c3a4d629174478b512dc4",
    "source_url": "https://id.gov.et/api/proxy/get/locations",
    "harvested": "2026-06-05",
    "status": "ok"
  },
  {
    "location_type": "post office",
    "file": "geojson/post_office.geojson",
    "features": 91,
    "active": 91,
    "minlon": 36.494499,
    "minlat": 5.917354,
    "maxlon": 42.804223,
    "maxlat": 14.278263,
    "bytes": 53696,
    "sha256": "cf4ea33d49b295daf5fc41cd1e240d18cffde3b22b3aeadc05c117a461499b7e",
    "source_url": "https://id.gov.et/api/proxy/get/locations",
    "harvested": "2026-06-05",
    "status": "ok"
  },
  {
    "location_type": "bank",
    "file": "geojson/bank.geojson",
    "features": 44,
    "active": 1,
    "minlon": 35,
    "minlat": 5,
    "maxlon": 42.126,
    "maxlat": 9.312,
    "bytes": 22344,
    "sha256": "07c208a5b6b29dd5210cde4696bd1b20b114075f0350f4b19974b5bb6d67c9e3",
    "source_url": "https://id.gov.et/api/proxy/get/locations",
    "harvested": "2026-06-05",
    "status": "ok"
  },
  {
    "location_type": "dars",
    "file": "geojson/dars.geojson",
    "features": 14,
    "active": 0,
    "minlon": 38.696809,
    "minlat": 8.919697,
    "maxlon": 38.87814,
    "maxlat": 9.046212,
    "bytes": 8781,
    "sha256": "59f4b1023930d3f137bd0aee70d47117efeff158d9b37ce6a0cd685dc42489ce",
    "source_url": "https://id.gov.et/api/proxy/get/locations",
    "harvested": "2026-06-05",
    "status": "ok"
  },
  {
    "location_type": "palace parking",
    "file": "geojson/palace_parking.geojson",
    "features": 1,
    "active": 0,
    "minlon": 38.765,
    "minlat": 9.021,
    "maxlon": 38.765,
    "maxlat": 9.021,
    "bytes": 692,
    "sha256": "5f4a7b4a048e75a5e6e8ef90dd15d8af70c7b490b9cbdb1789b7a496e6c8bd29",
    "source_url": "https://id.gov.et/api/proxy/get/locations",
    "harvested": "2026-06-05",
    "status": "ok"
  }
]